[
{
  "coord.lat": 34.790878,
  "coord.lon": 48.570728,
  "name": "Azadshahr"
},
{
  "coord.lat": 35.012501,
  "coord.lon": 34.058331,
  "name": "Protaras"
},
{
  "coord.lat": 34.383801,
  "coord.lon": 47.055302,
  "name": "Kahriz"
},
{
  "coord.lat": 34.073399,
  "coord.lon": 47.9725,
  "name": "Nurabad"
},
{
  "coord.lat": 35.23455,
  "coord.lon": 52.309422,
  "name": "Istgah-e Garmsar"
},
{
  "coord.lat": 35.439442,
  "coord.lon": 51.56889,
  "name": "Qarchak"
},
{
  "coord.lat": 36.213001,
  "coord.lon": 49.195999,
  "name": "Khorram Darreh"
},
{
  "coord.lat": 2.6185,
  "coord.lon": 44.893799,
  "name": "Wanlaweyn"
},
{
  "coord.lat": 1.78784,
  "coord.lon": 44.529991,
  "name": "Qoryooley"
},
{
  "coord.lat": 11.47197,
  "coord.lon": 49.872822,
  "name": "Qandala"
},
{
  "coord.lat": 2.03711,
  "coord.lon": 45.34375,
  "name": "Mogadishu"
},
{
  "coord.lat": 3.79376,
  "coord.lon": 42.544498,
  "name": "Luuq"
},
{
  "coord.lat": -0.35817,
  "coord.lon": 42.545361,
  "name": "Kismaayo"
},
{
  "coord.lat": 0.48829,
  "coord.lon": 42.785351,
  "name": "Jilib"
},
{
  "coord.lat": 2.78087,
  "coord.lon": 45.500481,
  "name": "Jawhar"
},
{
  "coord.lat": 0.06968,
  "coord.lon": 42.744968,
  "name": "Jamaame"
},
{
  "coord.lat": 9.56,
  "coord.lon": 44.064999,
  "name": "Hargeysa"
},
{
  "coord.lat": 6.76972,
  "coord.lon": 47.430828,
  "name": "Gaalkacyo"
},
{
  "coord.lat": 7.9803,
  "coord.lon": 49.816399,
  "name": "Eyl"
},
{
  "coord.lat": 10.61616,
  "coord.lon": 47.36795,
  "name": "Ceerigaabo"
},
{
  "coord.lat": 3.84878,
  "coord.lon": 47.180641,
  "name": "Ceeldheer"
},
{
  "coord.lat": 2.80257,
  "coord.lon": 44.07806,
  "name": "Buurhakaba"
},
{
  "coord.lat": 3.85375,
  "coord.lon": 45.56744,
  "name": "Buulobarde"
},
{
  "coord.lat": 9.52212,
  "coord.lon": 45.53363,
  "name": "Burco"
},
{
  "coord.lat": 11.28421,
  "coord.lon": 49.18158,
  "name": "Boosaaso"
},
{
  "coord.lat": 10.43959,
  "coord.lon": 45.01432,
  "name": "Berbera"
},
{
  "coord.lat": 4.73583,
  "coord.lon": 45.203609,
  "name": "Beledweyne"
},
{
  "coord.lat": 3.11383,
  "coord.lon": 43.649799,
  "name": "Baydhabo"
},
{
  "coord.lat": 2.34464,
  "coord.lon": 42.27644,
  "name": "Baardheere"
},
{
  "coord.lat": 2.1381,
  "coord.lon": 45.121201,
  "name": "Afgooye"
},
{
  "coord.lat": 14.1951,
  "coord.lon": 43.315182,
  "name": "Zabid"
},
{
  "coord.lat": 14.29804,
  "coord.lon": 44.377949,
  "name": "Yarim"
},
{
  "coord.lat": 13.57952,
  "coord.lon": 44.020908,
  "name": "Taizz"
},
{
  "coord.lat": 15.17177,
  "coord.lon": 44.324421,
  "name": "Sayyan"
},
{
  "coord.lat": 15.35472,
  "coord.lon": 44.206669,
  "name": "Sanaa"
},
{
  "coord.lat": 15.31586,
  "coord.lon": 44.308578,
  "name": "Sahar"
},
{
  "coord.lat": 13.05667,
  "coord.lon": 44.881939,
  "name": "Lahij"
},
{
  "coord.lat": 13.96667,
  "coord.lon": 44.183331,
  "name": "Ibb"
},
{
  "coord.lat": 15.69425,
  "coord.lon": 43.60582,
  "name": "Hajjah"
},
{
  "coord.lat": 13.83446,
  "coord.lon": 44.114689,
  "name": "Dhi as Sufal"
},
{
  "coord.lat": 14.51635,
  "coord.lon": 43.324459,
  "name": "Bayt al Faqih"
},
{
  "coord.lat": 15.05835,
  "coord.lon": 43.285061,
  "name": "Bajil"
},
{
  "coord.lat": 14.54248,
  "coord.lon": 49.124241,
  "name": "Al Mukalla"
},
{
  "coord.lat": 14.79781,
  "coord.lon": 42.954521,
  "name": "Al Hudaydah"
},
{
  "coord.lat": 13.98523,
  "coord.lon": 45.57272,
  "name": "Al Bayda"
},
{
  "coord.lat": 32.083611,
  "coord.lon": 23.976391,
  "name": "Tobruk"
},
{
  "coord.lat": 31.66818,
  "coord.lon": 20.25205,
  "name": "Suluq"
},
{
  "coord.lat": 32.76704,
  "coord.lon": 22.63669,
  "name": "Darnah"
},
{
  "coord.lat": 32.116669,
  "coord.lon": 20.066669,
  "name": "Benghazi"
},
{
  "coord.lat": 30.9522,
  "coord.lon": 20.12022,
  "name": "Az Zuwaytinah"
},
{
  "coord.lat": 24.20487,
  "coord.lon": 23.2857,
  "name": "At Taj"
},
{
  "coord.lat": 32.534142,
  "coord.lon": 20.579109,
  "name": "Al Aquriyah"
},
{
  "coord.lat": 32.76162,
  "coord.lon": 22.242371,
  "name": "Al Qubbah"
},
{
  "coord.lat": 32.48798,
  "coord.lon": 20.831739,
  "name": "Al Marj"
},
{
  "coord.lat": 32.762718,
  "coord.lon": 21.75506,
  "name": "Al Bayda"
},
{
  "coord.lat": 32.189999,
  "coord.lon": 20.596531,
  "name": "Al Abyar"
},
{
  "coord.lat": 30.755449,
  "coord.lon": 20.226259,
  "name": "Ajdabiya"
},
{
  "coord.lat": 37.14817,
  "coord.lon": 42.700081,
  "name": "Zakhu"
},
{
  "coord.lat": 30.040541,
  "coord.lon": 47.916771,
  "name": "Umm Qasr"
},
{
  "coord.lat": 34.890461,
  "coord.lon": 44.62994,
  "name": "Tozkhurmato"
},
{
  "coord.lat": 34.607121,
  "coord.lon": 43.678219,
  "name": "Tikrit"
},
{
  "coord.lat": 36.489441,
  "coord.lon": 43.119171,
  "name": "Qada Talkif"
},
{
  "coord.lat": 36.809021,
  "coord.lon": 43.03886,
  "name": "Sinah"
},
{
  "coord.lat": 34.200958,
  "coord.lon": 43.875622,
  "name": "Samarra"
},
{
  "coord.lat": 32.714722,
  "coord.lon": 44.280281,
  "name": "Nahiyat Saddat al Hindiyah"
},
{
  "coord.lat": 36.61631,
  "coord.lon": 44.531109,
  "name": "Rawanduz"
},
{
  "coord.lat": 34.48164,
  "coord.lon": 41.909302,
  "name": "Rawah"
},
{
  "coord.lat": 36.271461,
  "coord.lon": 43.37373,
  "name": "Qada al Hamdaniyah"
},
{
  "coord.lat": 33.749859,
  "coord.lon": 45.5541,
  "name": "Mandali"
},
{
  "coord.lat": 36.082142,
  "coord.lon": 44.627781,
  "name": "Koysinceq"
},
{
  "coord.lat": 34.695869,
  "coord.lon": 44.966099,
  "name": "Kifri"
},
{
  "coord.lat": 35.46806,
  "coord.lon": 44.39222,
  "name": "Kirkuk"
},
{
  "coord.lat": 32.616032,
  "coord.lon": 44.024879,
  "name": "Karbala"
},
{
  "coord.lat": 36.19257,
  "coord.lon": 44.01062,
  "name": "Erbil"
},
{
  "coord.lat": 33.64159,
  "coord.lon": 42.825089,
  "name": "Hit"
},
{
  "coord.lat": 35.17778,
  "coord.lon": 45.986111,
  "name": "Halabjah"
},
{
  "coord.lat": 34.139721,
  "coord.lon": 42.378059,
  "name": "Hadithah"
},
{
  "coord.lat": 35.53653,
  "coord.lon": 44.831669,
  "name": "Chamchamal"
},
{
  "coord.lat": 34.931141,
  "coord.lon": 43.487,
  "name": "Bayji"
},
{
  "coord.lat": 33.748459,
  "coord.lon": 44.655449,
  "name": "Baqubah"
},
{
  "coord.lat": 35.618301,
  "coord.lon": 45.954102,
  "name": "Paynjuwayn"
},
{
  "coord.lat": 34.01638,
  "coord.lon": 44.145309,
  "name": "Balad"
},
{
  "coord.lat": 33.34058,
  "coord.lon": 44.400879,
  "name": "Baghdad"
},
{
  "coord.lat": 30.39447,
  "coord.lon": 47.701141,
  "name": "Az Zubayr"
},
{
  "coord.lat": 32.92556,
  "coord.lon": 44.775829,
  "name": "As Suwayrah"
},
{
  "coord.lat": 35.561131,
  "coord.lon": 45.437489,
  "name": "As Sulaymaniyah"
},
{
  "coord.lat": 31.33198,
  "coord.lon": 45.294399,
  "name": "As Samawah"
},
{
  "coord.lat": 31.58737,
  "coord.lon": 44.66016,
  "name": "Nahiyat ash Shinafiyah"
},
{
  "coord.lat": 31.411711,
  "coord.lon": 46.174179,
  "name": "Ash Shatrah"
},
{
  "coord.lat": 31.963619,
  "coord.lon": 44.599041,
  "name": "Ash Shamiyah"
},
{
  "coord.lat": 33.038071,
  "coord.lon": 40.284821,
  "name": "Ar Rutbah"
},
{
  "coord.lat": 31.526291,
  "coord.lon": 45.202461,
  "name": "Ar Rumaythah"
},
{
  "coord.lat": 33.422569,
  "coord.lon": 43.30584,
  "name": "Ar Ramadi"
},
{
  "coord.lat": 31.05205,
  "coord.lon": 46.261021,
  "name": "An Nasiriyah"
},
{
  "coord.lat": 31.998541,
  "coord.lon": 44.33976,
  "name": "An Najaf al Ashraf"
},
{
  "coord.lat": 34.465889,
  "coord.lon": 41.933102,
  "name": "Anat al Qadimah"
},
{
  "coord.lat": 32.297989,
  "coord.lon": 44.682812,
  "name": "Imam Qasim"
},
{
  "coord.lat": 32.783321,
  "coord.lon": 44.282509,
  "name": "Al Musayyib"
},
{
  "coord.lat": 31.804159,
  "coord.lon": 44.49107,
  "name": "Al Mishkhab"
},
{
  "coord.lat": 33.978611,
  "coord.lon": 44.936939,
  "name": "Al Miqdadiyah"
},
{
  "coord.lat": 36.334641,
  "coord.lon": 43.097771,
  "name": "Al Mawsil al Jadidah"
},
{
  "coord.lat": 36.334999,
  "coord.lon": 43.118889,
  "name": "Mosul"
},
{
  "coord.lat": 31.572321,
  "coord.lon": 47.175289,
  "name": "Al Majar al Kabir"
},
{
  "coord.lat": 32.514702,
  "coord.lon": 45.819019,
  "name": "Al Kut"
},
{
  "coord.lat": 33.819962,
  "coord.lon": 44.526371,
  "name": "Khalis"
},
{
  "coord.lat": 32.463261,
  "coord.lon": 46.686371,
  "name": "Ali al Gharbi"
},
{
  "coord.lat": 32.543331,
  "coord.lon": 44.2225,
  "name": "Al Hindiyah"
},
{
  "coord.lat": 32.480141,
  "coord.lon": 44.435261,
  "name": "Al Hillah"
},
{
  "coord.lat": 32.173489,
  "coord.lon": 46.043301,
  "name": "Al Hayy"
},
{
  "coord.lat": 30.718611,
  "coord.lon": 47.720829,
  "name": "Al Harithah"
},
{
  "coord.lat": 31.743111,
  "coord.lon": 44.619598,
  "name": "Nahiyat Ghammas"
},
{
  "coord.lat": 30.969721,
  "coord.lon": 46.722778,
  "name": "Nahiyat al Fuhud"
},
{
  "coord.lat": 29.977631,
  "coord.lon": 48.474121,
  "name": "Al Faw"
},
{
  "coord.lat": 33.353802,
  "coord.lon": 43.77951,
  "name": "Al Fallujah"
},
{
  "coord.lat": 30.53488,
  "coord.lon": 47.788849,
  "name": "Al Basrah"
},
{
  "coord.lat": 32.90583,
  "coord.lon": 45.06163,
  "name": "Al Aziziyah"
},
{
  "coord.lat": 31.840639,
  "coord.lon": 47.139599,
  "name": "Al Amarah"
},
{
  "coord.lat": 32.068981,
  "coord.lon": 45.250549,
  "name": "Afak"
},
{
  "coord.lat": 33.846668,
  "coord.lon": 44.23444,
  "name": "Ad Dujayl"
},
{
  "coord.lat": 31.990511,
  "coord.lon": 44.93063,
  "name": "Ad Diwaniyah"
},
{
  "coord.lat": 33.308331,
  "coord.lon": 44.185001,
  "name": "Abu Ghurayb"
},
{
  "coord.lat": 24.089121,
  "coord.lon": 38.06374,
  "name": "Yanbu al Bahr"
},
{
  "coord.lat": 25.021259,
  "coord.lon": 37.268501,
  "name": "Umm Lajj"
},
{
  "coord.lat": 31.67252,
  "coord.lon": 38.663738,
  "name": "Turayf"
},
{
  "coord.lat": 21.21406,
  "coord.lon": 41.633099,
  "name": "Turabah"
},
{
  "coord.lat": 26.57332,
  "coord.lon": 50.036942,
  "name": "Tarut"
},
{
  "coord.lat": 28.383329,
  "coord.lon": 36.583328,
  "name": "Tabuk"
},
{
  "coord.lat": 30.49987,
  "coord.lon": 38.21603,
  "name": "Tubarjal"
},
{
  "coord.lat": 24.49258,
  "coord.lon": 39.58572,
  "name": "Sultanah"
},
{
  "coord.lat": 26.48522,
  "coord.lon": 50.040459,
  "name": "Sayhat"
},
{
  "coord.lat": 16.59601,
  "coord.lon": 42.944351,
  "name": "Samitah"
},
{
  "coord.lat": 29.96974,
  "coord.lon": 40.206409,
  "name": "Sakaka"
},
{
  "coord.lat": 26.64986,
  "coord.lon": 49.952229,
  "name": "Safwa"
},
{
  "coord.lat": 17.1495,
  "coord.lon": 42.62537,
  "name": "Sabya"
},
{
  "coord.lat": 26.707911,
  "coord.lon": 50.061939,
  "name": "Rahimah"
},
{
  "coord.lat": 22.798559,
  "coord.lon": 39.034931,
  "name": "Rabigh"
},
{
  "coord.lat": 20.00054,
  "coord.lon": 42.605202,
  "name": "Qalat Bishah"
},
{
  "coord.lat": 17.492399,
  "coord.lon": 44.127659,
  "name": "Najran"
},
{
  "coord.lat": 21.42667,
  "coord.lon": 39.826111,
  "name": "Mecca"
},
{
  "coord.lat": 18.306391,
  "coord.lon": 42.729172,
  "name": "Khamis Mushayt"
},
{
  "coord.lat": 16.88917,
  "coord.lon": 42.551109,
  "name": "Jizan"
},
{
  "coord.lat": 21.516939,
  "coord.lon": 39.21917,
  "name": "Jeddah"
},
{
  "coord.lat": 27.521879,
  "coord.lon": 41.690731,
  "name": "Hayil"
},
{
  "coord.lat": 27.351339,
  "coord.lon": 35.69014,
  "name": "Zbe"
},
{
  "coord.lat": 26.325991,
  "coord.lon": 43.974972,
  "name": "Buraydah"
},
{
  "coord.lat": 25.937099,
  "coord.lon": 49.677608,
  "name": "Abqaiq"
},
{
  "coord.lat": 23.782921,
  "coord.lon": 38.79047,
  "name": "Badr Hunayn"
},
{
  "coord.lat": 26.29945,
  "coord.lon": 44.815418,
  "name": "Az Zulfi"
},
{
  "coord.lat": 26.30324,
  "coord.lon": 50.135281,
  "name": "Dhahran"
},
{
  "coord.lat": 25.362761,
  "coord.lon": 49.72504,
  "name": "At Taraf"
},
{
  "coord.lat": 21.270281,
  "coord.lon": 40.415829,
  "name": "Taif"
},
{
  "coord.lat": 20.46067,
  "coord.lon": 45.577919,
  "name": "As Sulayyil"
},
{
  "coord.lat": 24.687731,
  "coord.lon": 46.721851,
  "name": "Riyadh"
},
{
  "coord.lat": 25.86944,
  "coord.lon": 43.497299,
  "name": "Ar Rass"
},
{
  "coord.lat": 30.975309,
  "coord.lon": 41.038078,
  "name": "Arar"
},
{
  "coord.lat": 19.14547,
  "coord.lon": 42.120098,
  "name": "An Nimas"
},
{
  "coord.lat": 31.33176,
  "coord.lon": 37.342819,
  "name": "Al Qurayyat"
},
{
  "coord.lat": 26.24551,
  "coord.lon": 36.45248,
  "name": "Al Wajh"
},
{
  "coord.lat": 28.311171,
  "coord.lon": 46.127289,
  "name": "Al Qaysumah"
},
{
  "coord.lat": 26.5208,
  "coord.lon": 50.024521,
  "name": "Al Qatif"
},
{
  "coord.lat": 25.383329,
  "coord.lon": 49.666672,
  "name": "Al Munayzilah"
},
{
  "coord.lat": 25.41,
  "coord.lon": 49.58083,
  "name": "Al Mubarraz"
},
{
  "coord.lat": 24.468611,
  "coord.lon": 39.61417,
  "name": "Medina"
},
{
  "coord.lat": 26.27944,
  "coord.lon": 50.208328,
  "name": "Al Khubar"
},
{
  "coord.lat": 28.439051,
  "coord.lon": 48.491322,
  "name": "Al Khafji"
},
{
  "coord.lat": 21.61694,
  "coord.lon": 39.698059,
  "name": "Al Jumum"
},
{
  "coord.lat": 27.011221,
  "coord.lon": 49.65826,
  "name": "Al Jubayl"
},
{
  "coord.lat": 25.364571,
  "coord.lon": 49.565319,
  "name": "Al Hufuf"
},
{
  "coord.lat": 26.14422,
  "coord.lon": 43.659328,
  "name": "Al Bukayriyah"
},
{
  "coord.lat": 25.433331,
  "coord.lon": 49.633331,
  "name": "Al Battaliyah"
},
{
  "coord.lat": 20.01288,
  "coord.lon": 41.46767,
  "name": "Al Bahah"
},
{
  "coord.lat": 23.9065,
  "coord.lon": 42.91724,
  "name": "Afif"
},
{
  "coord.lat": 23.991461,
  "coord.lon": 47.162659,
  "name": "Ad Dilam"
},
{
  "coord.lat": 24.507721,
  "coord.lon": 44.392368,
  "name": "Ad Dawadimi"
},
{
  "coord.lat": 26.43442,
  "coord.lon": 50.10326,
  "name": "Ad Dammam"
},
{
  "coord.lat": 16.96887,
  "coord.lon": 42.832512,
  "name": "Abu Arish"
},
{
  "coord.lat": 18.216391,
  "coord.lon": 42.50528,
  "name": "Abha"
},
{
  "coord.lat": 37.087009,
  "coord.lon": 55.173969,
  "name": "Shah Pasand"
},
{
  "coord.lat": 30.81271,
  "coord.lon": 56.563992,
  "name": "Zarand"
},
{
  "coord.lat": 36.673599,
  "coord.lon": 48.478699,
  "name": "Zanjan"
},
{
  "coord.lat": 31.897221,
  "coord.lon": 54.3675,
  "name": "Yazd"
},
{
  "coord.lat": 35.3242,
  "coord.lon": 51.645699,
  "name": "Varamin"
},
{
  "coord.lat": 35.27401,
  "coord.lon": 59.21949,
  "name": "Torbat-e Heydariyeh"
},
{
  "coord.lat": 36.816261,
  "coord.lon": 50.87376,
  "name": "Tonekabon"
},
{
  "coord.lat": 35.694389,
  "coord.lon": 51.421509,
  "name": "Tehran"
},
{
  "coord.lat": 37.8008,
  "coord.lon": 48.903702,
  "name": "Hashtpar"
},
{
  "coord.lat": 36.069599,
  "coord.lon": 49.6959,
  "name": "Takestan"
},
{
  "coord.lat": 36.400902,
  "coord.lon": 47.1133,
  "name": "Takab"
},
{
  "coord.lat": 31.747101,
  "coord.lon": 54.20882,
  "name": "Taft"
},
{
  "coord.lat": 38.080002,
  "coord.lon": 46.291901,
  "name": "Tabriz"
},
{
  "coord.lat": 33.59586,
  "coord.lon": 56.92437,
  "name": "Tabas"
},
{
  "coord.lat": 34.783699,
  "coord.lon": 47.600399,
  "name": "Sonqor"
},
{
  "coord.lat": 29.452,
  "coord.lon": 55.6814,
  "name": "Sirjan"
},
{
  "coord.lat": 32.045502,
  "coord.lon": 48.856701,
  "name": "Shushtar"
},
{
  "coord.lat": 32.194199,
  "coord.lon": 48.243599,
  "name": "Shush"
},
{
  "coord.lat": 29.6036,
  "coord.lon": 52.538799,
  "name": "Shiraz"
},
{
  "coord.lat": 32.325562,
  "coord.lon": 50.864441,
  "name": "Shahr-e Kord"
},
{
  "coord.lat": 30.116501,
  "coord.lon": 55.118599,
  "name": "Shahr-e Babak"
},
{
  "coord.lat": 30.649719,
  "coord.lon": 48.664719,
  "name": "Shadegan"
},
{
  "coord.lat": 35.57291,
  "coord.lon": 53.397141,
  "name": "Semnan"
},
{
  "coord.lat": 31.41667,
  "coord.lon": 51.566669,
  "name": "Semirom"
},
{
  "coord.lat": 35.021301,
  "coord.lon": 50.356602,
  "name": "Saveh"
},
{
  "coord.lat": 36.56332,
  "coord.lon": 53.060089,
  "name": "Shari-i-Tajan"
},
{
  "coord.lat": 36.24992,
  "coord.lon": 46.273499,
  "name": "Saqqez"
},
{
  "coord.lat": 35.3144,
  "coord.lon": 46.992298,
  "name": "Sanandaj"
},
{
  "coord.lat": 38.1973,
  "coord.lon": 44.765301,
  "name": "Salmas"
},
{
  "coord.lat": 36.679298,
  "coord.lon": 46.566898,
  "name": "Shahin Dezh"
},
{
  "coord.lat": 36.212601,
  "coord.lon": 57.681911,
  "name": "Sabzevar"
},
{
  "coord.lat": 37.137611,
  "coord.lon": 50.287998,
  "name": "Rudsar"
},
{
  "coord.lat": 35.4846,
  "coord.lon": 51.082901,
  "name": "Robat Karim"
},
{
  "coord.lat": 31.265619,
  "coord.lon": 56.80545,
  "name": "Ravar"
},
{
  "coord.lat": 37.280769,
  "coord.lon": 49.583191,
  "name": "Rasht"
},
{
  "coord.lat": 30.8946,
  "coord.lon": 49.409199,
  "name": "Ramshir"
},
{
  "coord.lat": 31.27997,
  "coord.lon": 49.603512,
  "name": "Ramhormoz"
},
{
  "coord.lat": 30.4067,
  "coord.lon": 55.9939,
  "name": "Rafsanjan"
},
{
  "coord.lat": 37.105999,
  "coord.lon": 58.509548,
  "name": "Quchan"
},
{
  "coord.lat": 35.166401,
  "coord.lon": 47.804501,
  "name": "Qorveh"
},
{
  "coord.lat": 34.640099,
  "coord.lon": 50.8764,
  "name": "Qom"
},
{
  "coord.lat": 26.958099,
  "coord.lon": 56.2719,
  "name": "Qeshm"
},
{
  "coord.lat": 36.279701,
  "coord.lon": 50.004902,
  "name": "Qazvin"
},
{
  "coord.lat": 38.891499,
  "coord.lon": 45.025501,
  "name": "Qarah Zia od Din"
},
{
  "coord.lat": 32.27174,
  "coord.lon": 50.98008,
  "name": "Farrokh Shahr"
},
{
  "coord.lat": 33.72654,
  "coord.lon": 59.184391,
  "name": "Qayen"
},
{
  "coord.lat": 34.46109,
  "coord.lon": 45.86264,
  "name": "Sarpol-e Zahab"
},
{
  "coord.lat": 35.307999,
  "coord.lon": 51.7267,
  "name": "Pishva"
},
{
  "coord.lat": 36.701,
  "coord.lon": 45.1413,
  "name": "Piranshahr"
},
{
  "coord.lat": 35.0434,
  "coord.lon": 46.356499,
  "name": "Paveh"
},
{
  "coord.lat": 39.648201,
  "coord.lon": 47.9174,
  "name": "Parsabad"
},
{
  "coord.lat": 37.0397,
  "coord.lon": 45.098301,
  "name": "Oshnaviyeh"
},
{
  "coord.lat": 37.552738,
  "coord.lon": 45.07605,
  "name": "Orumiyeh"
},
{
  "coord.lat": 30.75972,
  "coord.lon": 49.705002,
  "name": "Omidiyeh"
},
{
  "coord.lat": 30.11405,
  "coord.lon": 51.52174,
  "name": "Nurabad"
},
{
  "coord.lat": 36.648998,
  "coord.lon": 51.495998,
  "name": "Now Shahr"
},
{
  "coord.lat": 36.213291,
  "coord.lon": 58.795761,
  "name": "Neyshabur"
},
{
  "coord.lat": 29.198799,
  "coord.lon": 54.327801,
  "name": "Neyriz"
},
{
  "coord.lat": 36.650791,
  "coord.lon": 53.299049,
  "name": "Neka"
},
{
  "coord.lat": 35.952099,
  "coord.lon": 50.607498,
  "name": "Nazarabad"
},
{
  "coord.lat": 36.955299,
  "coord.lon": 45.388,
  "name": "Naqadeh"
},
{
  "coord.lat": 34.188499,
  "coord.lon": 48.376999,
  "name": "Nahavand"
},
{
  "coord.lat": 27.1467,
  "coord.lon": 57.080101,
  "name": "Minab"
},
{
  "coord.lat": 36.969398,
  "coord.lon": 46.102699,
  "name": "Miandowab"
},
{
  "coord.lat": 32.250141,
  "coord.lon": 54.016579,
  "name": "Meybod"
},
{
  "coord.lat": 31.591681,
  "coord.lon": 54.431782,
  "name": "Mehriz"
},
{
  "coord.lat": 31.936399,
  "coord.lon": 49.303902,
  "name": "Masjed Soleyman"
},
{
  "coord.lat": 29.922661,
  "coord.lon": 56.574341,
  "name": "Bardsir"
},
{
  "coord.lat": 36.297001,
  "coord.lon": 59.606201,
  "name": "Mashhad"
},
{
  "coord.lat": 38.432899,
  "coord.lon": 45.774899,
  "name": "Marand"
},
{
  "coord.lat": 34.296902,
  "coord.lon": 48.823502,
  "name": "Malayer"
},
{
  "coord.lat": 35.665901,
  "coord.lon": 50.9767,
  "name": "Malard"
},
{
  "coord.lat": 36.7631,
  "coord.lon": 45.722198,
  "name": "Mahabad"
},
{
  "coord.lat": 37.19701,
  "coord.lon": 50.153511,
  "name": "Langerud"
},
{
  "coord.lat": 33.535,
  "coord.lon": 47.606098,
  "name": "Kuhdasht"
},
{
  "coord.lat": 26.557779,
  "coord.lon": 54.01944,
  "name": "Kish"
},
{
  "coord.lat": 38.550301,
  "coord.lon": 44.952099,
  "name": "Khvoy"
},
{
  "coord.lat": 33.22052,
  "coord.lon": 50.314968,
  "name": "Khvansar"
},
{
  "coord.lat": 30.439699,
  "coord.lon": 48.166401,
  "name": "Khorramshahr"
},
{
  "coord.lat": 33.487782,
  "coord.lon": 48.355831,
  "name": "Khorramabad"
},
{
  "coord.lat": 33.642262,
  "coord.lon": 50.078899,
  "name": "Khomeyn"
},
{
  "coord.lat": 37.6189,
  "coord.lon": 48.525799,
  "name": "Herowabad"
},
{
  "coord.lat": 34.314171,
  "coord.lon": 47.064999,
  "name": "Kermanshah"
},
{
  "coord.lat": 30.283211,
  "coord.lon": 57.078789,
  "name": "Kerman"
},
{
  "coord.lat": 29.61949,
  "coord.lon": 51.654148,
  "name": "Kazerun"
},
{
  "coord.lat": 35.238312,
  "coord.lon": 58.46558,
  "name": "Kashmar"
},
{
  "coord.lat": 33.983082,
  "coord.lon": 51.43644,
  "name": "Kashan"
},
{
  "coord.lat": 35.835499,
  "coord.lon": 51.0103,
  "name": "Karaj"
},
{
  "coord.lat": 34.504299,
  "coord.lon": 47.965302,
  "name": "Kangavar"
},
{
  "coord.lat": 34.795601,
  "coord.lon": 46.935501,
  "name": "Kamyaran"
},
{
  "coord.lat": 37.380711,
  "coord.lon": 55.491638,
  "name": "Kalaleh"
},
{
  "coord.lat": 36.641151,
  "coord.lon": 52.912441,
  "name": "Juybar"
},
{
  "coord.lat": 34.796108,
  "coord.lon": 46.51722,
  "name": "Javanrud"
},
{
  "coord.lat": 33.637402,
  "coord.lon": 46.422699,
  "name": "Ilam"
},
{
  "coord.lat": 34.272099,
  "coord.lon": 47.586102,
  "name": "Harsin"
},
{
  "coord.lat": 34.799221,
  "coord.lon": 48.514561,
  "name": "Hamadan"
},
{
  "coord.lat": 36.838661,
  "coord.lon": 54.43475,
  "name": "Gorgan"
},
{
  "coord.lat": 37.250038,
  "coord.lon": 55.16721,
  "name": "Gonbad-e Qabus"
},
{
  "coord.lat": 34.352859,
  "coord.lon": 58.683651,
  "name": "Gonabad"
},
{
  "coord.lat": 33.453701,
  "coord.lon": 50.288361,
  "name": "Golpayegan"
},
{
  "coord.lat": 27.665199,
  "coord.lon": 54.1371,
  "name": "Gerash"
},
{
  "coord.lat": 29.5791,
  "coord.lon": 50.516998,
  "name": "Bandar-e Ganaveh"
},
{
  "coord.lat": 28.8438,
  "coord.lon": 52.570702,
  "name": "Firuzabad"
},
{
  "coord.lat": 36.68642,
  "coord.lon": 52.522549,
  "name": "Fereydun Kenar"
},
{
  "coord.lat": 28.938299,
  "coord.lon": 53.648201,
  "name": "Fasa"
},
{
  "coord.lat": 32.256939,
  "coord.lon": 50.560959,
  "name": "Farsan"
},
{
  "coord.lat": 37.07645,
  "coord.lon": 57.51009,
  "name": "Esfarayen"
},
{
  "coord.lat": 36.41819,
  "coord.lon": 54.97628,
  "name": "Shahrud"
},
{
  "coord.lat": 30.358601,
  "coord.lon": 50.7981,
  "name": "Do Gonbadan"
},
{
  "coord.lat": 33.990501,
  "coord.lon": 50.6838,
  "name": "Delijan"
},
{
  "coord.lat": 32.694099,
  "coord.lon": 47.267899,
  "name": "Dehloran"
},
{
  "coord.lat": 30.794901,
  "coord.lon": 50.564579,
  "name": "Dehdasht"
},
{
  "coord.lat": 31.560801,
  "coord.lon": 48.183102,
  "name": "Susangerd"
},
{
  "coord.lat": 28.75194,
  "coord.lon": 54.544441,
  "name": "Darab"
},
{
  "coord.lat": 36.168301,
  "coord.lon": 54.348,
  "name": "Damghan"
},
{
  "coord.lat": 35.717781,
  "coord.lon": 52.064999,
  "name": "Damavand"
},
{
  "coord.lat": 36.645458,
  "coord.lon": 59.121231,
  "name": "Chenaran"
},
{
  "coord.lat": 36.654999,
  "coord.lon": 51.420399,
  "name": "Chalus"
},
{
  "coord.lat": 28.968399,
  "coord.lon": 50.838501,
  "name": "Bandar Bushehr"
},
{
  "coord.lat": 36.521,
  "coord.lon": 46.2089,
  "name": "Bukan"
},
{
  "coord.lat": 33.897301,
  "coord.lon": 48.751598,
  "name": "Borujerd"
},
{
  "coord.lat": 31.965231,
  "coord.lon": 51.2873,
  "name": "Borujen"
},
{
  "coord.lat": 29.2666,
  "coord.lon": 51.2159,
  "name": "Borazjan"
},
{
  "coord.lat": 37.474731,
  "coord.lon": 57.329029,
  "name": "Bojnurd"
},
{
  "coord.lat": 32.86628,
  "coord.lon": 59.221142,
  "name": "Birjand"
},
{
  "coord.lat": 35.866798,
  "coord.lon": 47.605061,
  "name": "Bijar"
},
{
  "coord.lat": 37.340401,
  "coord.lon": 46.056099,
  "name": "Bonab"
},
{
  "coord.lat": 36.692348,
  "coord.lon": 53.55262,
  "name": "Behshahr"
},
{
  "coord.lat": 30.5959,
  "coord.lon": 50.241699,
  "name": "Behbahan"
},
{
  "coord.lat": 35.997501,
  "coord.lon": 45.8853,
  "name": "Baneh"
},
{
  "coord.lat": 26.55792,
  "coord.lon": 54.880669,
  "name": "Bandar-e Lengeh"
},
{
  "coord.lat": 30.429831,
  "coord.lon": 49.076279,
  "name": "Bandar Emām Khomeynī"
},
{
  "coord.lat": 37.472698,
  "coord.lon": 49.4622,
  "name": "Bandar-e Anzali"
},
{
  "coord.lat": 27.186501,
  "coord.lon": 56.2808,
  "name": "Bandar Abbas"
},
{
  "coord.lat": 29.106001,
  "coord.lon": 58.356998,
  "name": "Bam"
},
{
  "coord.lat": 34.9072,
  "coord.lon": 48.441399,
  "name": "Bahar"
},
{
  "coord.lat": 31.612829,
  "coord.lon": 55.410671,
  "name": "Bafq"
},
{
  "coord.lat": 36.702511,
  "coord.lon": 52.6576,
  "name": "Babolsar"
},
{
  "coord.lat": 36.551319,
  "coord.lon": 52.678951,
  "name": "Babol"
},
{
  "coord.lat": 33.609501,
  "coord.lon": 48.930698,
  "name": "Azna"
},
{
  "coord.lat": 37.477901,
  "coord.lon": 47.0508,
  "name": "Hashtrud"
},
{
  "coord.lat": 38.4291,
  "coord.lon": 48.872002,
  "name": "Astara"
},
{
  "coord.lat": 37.259621,
  "coord.lon": 49.944439,
  "name": "Astaneh-ye Ashrafiyeh"
},
{
  "coord.lat": 34.78241,
  "coord.lon": 48.11853,
  "name": "Asadabad"
},
{
  "coord.lat": 33.376099,
  "coord.lon": 52.3694,
  "name": "Ardestan"
},
{
  "coord.lat": 32.310009,
  "coord.lon": 54.017471,
  "name": "Ardakan"
},
{
  "coord.lat": 38.249802,
  "coord.lon": 48.293301,
  "name": "Ardabil"
},
{
  "coord.lat": 34.09174,
  "coord.lon": 49.689159,
  "name": "Arak"
},
{
  "coord.lat": 36.469608,
  "coord.lon": 52.350719,
  "name": "Amol"
},
{
  "coord.lat": 36.318699,
  "coord.lon": 49.167801,
  "name": "Alvand"
},
{
  "coord.lat": 35.659599,
  "coord.lon": 51.059299,
  "name": "Shahriar"
},
{
  "coord.lat": 33.400631,
  "coord.lon": 49.694901,
  "name": "Aligudarz"
},
{
  "coord.lat": 33.8633,
  "coord.lon": 48.261902,
  "name": "Aleshtar"
},
{
  "coord.lat": 29.246401,
  "coord.lon": 52.779301,
  "name": "Akbarabad"
},
{
  "coord.lat": 37.4776,
  "coord.lon": 45.894299,
  "name": "Ajab Shir"
},
{
  "coord.lat": 31.320299,
  "coord.lon": 48.6693,
  "name": "Ahvaz"
},
{
  "coord.lat": 38.477402,
  "coord.lon": 47.069901,
  "name": "Ahar"
},
{
  "coord.lat": 30.7006,
  "coord.lon": 49.831501,
  "name": "Aghajari"
},
{
  "coord.lat": 36.066669,
  "coord.lon": 50.549999,
  "name": "Abyek"
},
{
  "coord.lat": 36.146801,
  "coord.lon": 49.217999,
  "name": "Abhar"
},
{
  "coord.lat": 32.992599,
  "coord.lon": 47.4198,
  "name": "Abdanan"
},
{
  "coord.lat": 31.160801,
  "coord.lon": 52.6506,
  "name": "Abadeh"
},
{
  "coord.lat": 30.339199,
  "coord.lon": 48.304298,
  "name": "Abadan"
},
{
  "coord.lat": -9.66078,
  "coord.lon": 20.39155,
  "name": "Saurimo"
},
{
  "coord.lat": -8.41915,
  "coord.lon": 20.744659,
  "name": "Lucapa"
},
{
  "coord.lat": 34.76667,
  "coord.lon": 32.416672,
  "name": "Paphos"
},
{
  "coord.lat": 35.166672,
  "coord.lon": 33.366669,
  "name": "Nicosia"
},
{
  "coord.lat": 34.674999,
  "coord.lon": 33.033329,
  "name": "Limassol"
},
{
  "coord.lat": 34.916672,
  "coord.lon": 33.629169,
  "name": "Larnaca"
},
{
  "coord.lat": 35.341671,
  "coord.lon": 33.316669,
  "name": "Kyrenia"
},
{
  "coord.lat": 35.125,
  "coord.lon": 33.950001,
  "name": "Famagusta"
},
{
  "coord.lat": 39.817699,
  "coord.lon": 46.7528,
  "name": ""
},
{
  "coord.lat": 39.87867,
  "coord.lon": 48.399021,
  "name": "Telmankend"
},
{
  "coord.lat": 39.75893,
  "coord.lon": 46.749191,
  "name": "Shushi"
},
{
  "coord.lat": 39.59362,
  "coord.lon": 48.980549,
  "name": "Salyan"
},
{
  "coord.lat": 39.374168,
  "coord.lon": 49.247219,
  "name": "Neftcala"
},
{
  "coord.lat": 39.208889,
  "coord.lon": 45.41222,
  "name": "Nakhchivan"
},
{
  "coord.lat": 38.75428,
  "coord.lon": 48.85062,
  "name": ""
},
{
  "coord.lat": 39.870949,
  "coord.lon": 48.059952,
  "name": "Imishli"
},
{
  "coord.lat": 39.209629,
  "coord.lon": 48.491859,
  "name": "Dzhalilabad"
},
{
  "coord.lat": 39.458328,
  "coord.lon": 48.544998,
  "name": "Pushkino"
},
{
  "coord.lat": 38.455978,
  "coord.lon": 48.874981,
  "name": "Astara"
},
{
  "coord.lat": 39.937881,
  "coord.lon": 48.928551,
  "name": "Sirvan"
},
{
  "coord.lat": 39.990959,
  "coord.lon": 46.927361,
  "name": "Agdam"
},
{
  "coord.lat": -6.16394,
  "coord.lon": 39.197929,
  "name": "Zanzibar"
},
{
  "coord.lat": -5.05589,
  "coord.lon": 39.729382,
  "name": "Wete"
},
{
  "coord.lat": -9.11667,
  "coord.lon": 32.933331,
  "name": "Vwawa"
},
{
  "coord.lat": -7.00667,
  "coord.lon": 39.298489,
  "name": "Vikindu"
},
{
  "coord.lat": -3.28333,
  "coord.lon": 31.525829,
  "name": "Uyovu"
},
{
  "coord.lat": -5.10361,
  "coord.lon": 30.391109,
  "name": "Uvinza"
},
{
  "coord.lat": -3.49194,
  "coord.lon": 31.96389,
  "name": "Ushirombo"
},
{
  "coord.lat": -7.1,
  "coord.lon": 31.23333,
  "name": "Usevia"
},
{
  "coord.lat": -2.68333,
  "coord.lon": 33.0,
  "name": "Usagara"
},
{
  "coord.lat": -3.36667,
  "coord.lon": 36.849998,
  "name": "Usa"
},
{
  "coord.lat": -5.06667,
  "coord.lon": 32.049999,
  "name": "Urambo"
},
{
  "coord.lat": -9.3,
  "coord.lon": 32.76667,
  "name": "Tunduma"
},
{
  "coord.lat": -5.06667,
  "coord.lon": 32.73333,
  "name": "Tumbi"
},
{
  "coord.lat": -9.25,
  "coord.lon": 33.650002,
  "name": "Tukuyu"
},
{
  "coord.lat": -3.88333,
  "coord.lon": 33.200001,
  "name": "Tinde"
},
{
  "coord.lat": -1.35,
  "coord.lon": 34.366669,
  "name": "Tarime"
},
{
  "coord.lat": -5.06667,
  "coord.lon": 39.099998,
  "name": "Tanga"
},
{
  "coord.lat": -5.01667,
  "coord.lon": 32.799999,
  "name": "Tabora"
},
{
  "coord.lat": -7.96667,
  "coord.lon": 31.616671,
  "name": "Sumbawanga"
},
{
  "coord.lat": -3.51667,
  "coord.lon": 33.51667,
  "name": "Songwa"
},
{
  "coord.lat": -3.36667,
  "coord.lon": 33.950001,
  "name": "Somanda"
},
{
  "coord.lat": -6.43333,
  "coord.lon": 39.549999,
  "name": "Sokoni"
},
{
  "coord.lat": -1.23333,
  "coord.lon": 34.433331,
  "name": "Sirari"
},
{
  "coord.lat": -4.81667,
  "coord.lon": 34.75,
  "name": "Singida"
},
{
  "coord.lat": -5.63333,
  "coord.lon": 32.76667,
  "name": "Sikonge"
},
{
  "coord.lat": -3.66667,
  "coord.lon": 33.433331,
  "name": "Shinyanga"
},
{
  "coord.lat": -4.36667,
  "coord.lon": 34.200001,
  "name": "Shelui"
},
{
  "coord.lat": -4.75,
  "coord.lon": 34.533329,
  "name": "Sepuka"
},
{
  "coord.lat": -4.06667,
  "coord.lon": 37.73333,
  "name": "Same"
},
{
  "coord.lat": -2.7175,
  "coord.lon": 30.6325,
  "name": "Rulenge"
},
{
  "coord.lat": -8.7,
  "coord.lon": 34.383331,
  "name": "Rujewa"
},
{
  "coord.lat": -5.0,
  "coord.lon": 34.73333,
  "name": "Puma"
},
{
  "coord.lat": -3.55,
  "coord.lon": 33.400002,
  "name": "Old Shinyanga"
},
{
  "coord.lat": -4.21667,
  "coord.lon": 33.183331,
  "name": "Nzega"
},
{
  "coord.lat": -1.9,
  "coord.lon": 34.01667,
  "name": "Nyamuswa"
},
{
  "coord.lat": -3.18333,
  "coord.lon": 33.783329,
  "name": "Nyalikungu"
},
{
  "coord.lat": -2.63333,
  "coord.lon": 33.98333,
  "name": "Nyakabindi"
},
{
  "coord.lat": -1.14389,
  "coord.lon": 31.39472,
  "name": "Nsunga"
},
{
  "coord.lat": -1.79833,
  "coord.lon": 31.551109,
  "name": "Nshamba"
},
{
  "coord.lat": -9.33333,
  "coord.lon": 34.76667,
  "name": "Njombe"
},
{
  "coord.lat": -5.10917,
  "coord.lon": 31.041941,
  "name": "Nguruka"
},
{
  "coord.lat": -2.96667,
  "coord.lon": 33.333328,
  "name": "Ngudu"
},
{
  "coord.lat": -6.75,
  "coord.lon": 38.116669,
  "name": "Ngerengere"
},
{
  "coord.lat": -2.51222,
  "coord.lon": 30.65583,
  "name": "Ngara"
},
{
  "coord.lat": -4.46667,
  "coord.lon": 35.450001,
  "name": "Nangwa"
},
{
  "coord.lat": -7.51667,
  "coord.lon": 31.049999,
  "name": "Namanyere"
},
{
  "coord.lat": -2.51667,
  "coord.lon": 32.900002,
  "name": "Mwanza"
},
{
  "coord.lat": -3.55,
  "coord.lon": 33.599998,
  "name": "Mwadui"
},
{
  "coord.lat": -6.25,
  "coord.lon": 38.666672,
  "name": "Mvomero"
},
{
  "coord.lat": -1.5,
  "coord.lon": 33.799999,
  "name": "Musoma"
},
{
  "coord.lat": -1.98333,
  "coord.lon": 32.916672,
  "name": "Muriti"
},
{
  "coord.lat": -4.96667,
  "coord.lon": 34.883331,
  "name": "Mungaa"
},
{
  "coord.lat": -5.16667,
  "coord.lon": 38.783329,
  "name": "Muheza"
},
{
  "coord.lat": -1.85,
  "coord.lon": 34.700001,
  "name": "Mugumu"
},
{
  "coord.lat": -9.01667,
  "coord.lon": 34.799999,
  "name": "Mtwango"
},
{
  "coord.lat": -3.35,
  "coord.lon": 35.849998,
  "name": "Mto wa Mbu"
},
{
  "coord.lat": -4.55,
  "coord.lon": 34.849998,
  "name": "Mtinko"
},
{
  "coord.lat": -6.53333,
  "coord.lon": 37.200001,
  "name": "Msowero"
},
{
  "coord.lat": -6.35,
  "coord.lon": 36.48333,
  "name": "Mpwapwa"
},
{
  "coord.lat": -6.36546,
  "coord.lon": 31.040911,
  "name": "Mpanda"
},
{
  "coord.lat": -3.35,
  "coord.lon": 37.333328,
  "name": "Moshi"
},
{
  "coord.lat": -6.81667,
  "coord.lon": 37.666672,
  "name": "Morogoro"
},
{
  "coord.lat": -9.0,
  "coord.lon": 32.98333,
  "name": "Mlowo"
},
{
  "coord.lat": -8.8,
  "coord.lon": 35.816669,
  "name": "Mlimba"
},
{
  "coord.lat": -9.78333,
  "coord.lon": 34.51667,
  "name": "Mlangali"
},
{
  "coord.lat": -6.7,
  "coord.lon": 38.73333,
  "name": "Mlandizi"
},
{
  "coord.lat": -4.93333,
  "coord.lon": 38.933331,
  "name": "Mlalo"
},
{
  "coord.lat": -7.11799,
  "coord.lon": 39.207821,
  "name": "Mkuranga"
},
{
  "coord.lat": -4.83,
  "coord.lon": 29.65806,
  "name": "Mwandiga"
},
{
  "coord.lat": -2.85,
  "coord.lon": 33.083328,
  "name": "Missungwi"
},
{
  "coord.lat": -7.40409,
  "coord.lon": 36.983089,
  "name": "Mikumi"
},
{
  "coord.lat": -3.28333,
  "coord.lon": 32.849998,
  "name": "Mhango"
},
{
  "coord.lat": -5.95,
  "coord.lon": 34.133331,
  "name": "Mgandu"
},
{
  "coord.lat": -3.56667,
  "coord.lon": 36.950001,
  "name": "Mbuguni"
},
{
  "coord.lat": -8.9,
  "coord.lon": 33.450001,
  "name": "Mbeya"
},
{
  "coord.lat": -4.8,
  "coord.lon": 38.216671,
  "name": "Mazinde"
},
{
  "coord.lat": -4.8,
  "coord.lon": 38.25,
  "name": "Matui"
},
{
  "coord.lat": -8.3,
  "coord.lon": 31.51667,
  "name": "Matai"
},
{
  "coord.lat": -2.68333,
  "coord.lon": 33.98333,
  "name": "Maswa"
},
{
  "coord.lat": -3.63333,
  "coord.lon": 32.183331,
  "name": "Masumbwe"
},
{
  "coord.lat": -5.05,
  "coord.lon": 38.616669,
  "name": "Maramba"
},
{
  "coord.lat": -8.93333,
  "coord.lon": 36.133331,
  "name": "Malinyi"
},
{
  "coord.lat": -3.13333,
  "coord.lon": 33.533329,
  "name": "Malampaka"
},
{
  "coord.lat": -4.73333,
  "coord.lon": 38.099998,
  "name": "Makuyuni"
},
{
  "coord.lat": -8.85,
  "coord.lon": 34.833328,
  "name": "Makumbako"
},
{
  "coord.lat": -9.93333,
  "coord.lon": 35.333328,
  "name": "Mahanje"
},
{
  "coord.lat": -2.58333,
  "coord.lon": 33.349998,
  "name": "Magu Kahangara"
},
{
  "coord.lat": -4.01667,
  "coord.lon": 35.76667,
  "name": "Magugu"
},
{
  "coord.lat": -6.8,
  "coord.lon": 39.25,
  "name": "Magomeni"
},
{
  "coord.lat": -6.36667,
  "coord.lon": 37.366669,
  "name": "Magole"
},
{
  "coord.lat": -7.25,
  "coord.lon": 35.066669,
  "name": "Mafinga"
},
{
  "coord.lat": -5.13333,
  "coord.lon": 32.533329,
  "name": "Mabama"
},
{
  "coord.lat": -4.78333,
  "coord.lon": 38.283329,
  "name": "Lushoto"
},
{
  "coord.lat": -6.45,
  "coord.lon": 38.333328,
  "name": "Lugoba"
},
{
  "coord.lat": -9.76667,
  "coord.lon": 37.933331,
  "name": "Liwale"
},
{
  "coord.lat": -3.78333,
  "coord.lon": 37.616669,
  "name": "Lembeni"
},
{
  "coord.lat": -3.45,
  "coord.lon": 33.950001,
  "name": "Lalago"
},
{
  "coord.lat": -8.56667,
  "coord.lon": 32.049999,
  "name": "Laela"
},
{
  "coord.lat": -9.58333,
  "coord.lon": 33.849998,
  "name": "Kyela"
},
{
  "coord.lat": -4.9,
  "coord.lon": 35.783329,
  "name": "Kondoa"
},
{
  "coord.lat": -9.16667,
  "coord.lon": 33.533329,
  "name": "Kiwira"
},
{
  "coord.lat": -3.61667,
  "coord.lon": 33.866669,
  "name": "Kishapu"
},
{
  "coord.lat": -3.08333,
  "coord.lon": 34.150002,
  "name": "Kisesa"
},
{
  "coord.lat": -7.41667,
  "coord.lon": 30.6,
  "name": "Kirando"
},
{
  "coord.lat": -4.26667,
  "coord.lon": 34.366669,
  "name": "Kiomboi"
},
{
  "coord.lat": -3.28333,
  "coord.lon": 36.98333,
  "name": "Kingori"
},
{
  "coord.lat": -6.83333,
  "coord.lon": 36.98333,
  "name": "Kilosa"
},
{
  "coord.lat": -4.87694,
  "coord.lon": 29.626671,
  "name": "Kigoma"
},
{
  "coord.lat": -7.60361,
  "coord.lon": 37.004379,
  "name": "Kidodi"
},
{
  "coord.lat": -7.69916,
  "coord.lon": 36.957218,
  "name": "Kidatu"
},
{
  "coord.lat": -3.58639,
  "coord.lon": 30.72028,
  "name": "Kibondo"
},
{
  "coord.lat": -7.72178,
  "coord.lon": 38.937489,
  "name": "Kibiti"
},
{
  "coord.lat": -2.15,
  "coord.lon": 33.450001,
  "name": "Kibara"
},
{
  "coord.lat": -6.71667,
  "coord.lon": 36.366669,
  "name": "Kibakwe"
},
{
  "coord.lat": -6.76667,
  "coord.lon": 38.916672,
  "name": "Kibaha"
},
{
  "coord.lat": -9.23333,
  "coord.lon": 33.616669,
  "name": "Katumba"
},
{
  "coord.lat": -3.02028,
  "coord.lon": 31.89583,
  "name": "Katoro"
},
{
  "coord.lat": -1.4,
  "coord.lon": 31.73333,
  "name": "Katerero"
},
{
  "coord.lat": -4.57667,
  "coord.lon": 30.102501,
  "name": "Kasulu"
},
{
  "coord.lat": -2.85,
  "coord.lon": 32.433331,
  "name": "Kasamwa"
},
{
  "coord.lat": -3.33333,
  "coord.lon": 35.666672,
  "name": "Karatu"
},
{
  "coord.lat": -1.61861,
  "coord.lon": 31.620001,
  "name": "Kamachumu"
},
{
  "coord.lat": -3.28278,
  "coord.lon": 30.96417,
  "name": "Kakonko"
},
{
  "coord.lat": -3.83333,
  "coord.lon": 32.599998,
  "name": "Kahama"
},
{
  "coord.lat": -2.63861,
  "coord.lon": 30.467779,
  "name": "Kabanga"
},
{
  "coord.lat": -7.2,
  "coord.lon": 35.73333,
  "name": "Izazi"
},
{
  "coord.lat": -5.7,
  "coord.lon": 34.48333,
  "name": "Itigi"
},
{
  "coord.lat": -3.9,
  "coord.lon": 32.933331,
  "name": "Isaka"
},
{
  "coord.lat": -7.76667,
  "coord.lon": 35.700001,
  "name": "Iringa"
},
{
  "coord.lat": -9.48333,
  "coord.lon": 33.900002,
  "name": "Ipinda"
},
{
  "coord.lat": -7.6766,
  "coord.lon": 36.036579,
  "name": "Ilula"
},
{
  "coord.lat": -4.66667,
  "coord.lon": 34.866669,
  "name": "Ilongero"
},
{
  "coord.lat": -8.9,
  "coord.lon": 34.583328,
  "name": "Ilembula"
},
{
  "coord.lat": -5.13333,
  "coord.lon": 34.76667,
  "name": "Ikungi"
},
{
  "coord.lat": -8.85,
  "coord.lon": 33.849998,
  "name": "Igurusi"
},
{
  "coord.lat": -4.28333,
  "coord.lon": 33.883331,
  "name": "Igunga"
},
{
  "coord.lat": -4.56667,
  "coord.lon": 34.633331,
  "name": "Igugunu"
},
{
  "coord.lat": -8.13333,
  "coord.lon": 36.683331,
  "name": "Ifakara"
},
{
  "coord.lat": -4.5,
  "coord.lon": 37.900002,
  "name": "Hedaru"
},
{
  "coord.lat": -6.15,
  "coord.lon": 36.866669,
  "name": "Geiro"
},
{
  "coord.lat": -4.26667,
  "coord.lon": 35.849998,
  "name": "Galappo"
},
{
  "coord.lat": -4.06667,
  "coord.lon": 35.383331,
  "name": "Dongobesh"
},
{
  "coord.lat": -6.17221,
  "coord.lon": 35.739471,
  "name": "Dodoma"
},
{
  "coord.lat": -6.82349,
  "coord.lon": 39.269508,
  "name": "Dar es Salaam"
},
{
  "coord.lat": -4.21667,
  "coord.lon": 35.549999,
  "name": "Dareda"
},
{
  "coord.lat": -8.85,
  "coord.lon": 34.01667,
  "name": "Chimala"
},
{
  "coord.lat": -2.63778,
  "coord.lon": 31.766939,
  "name": "Chato"
},
{
  "coord.lat": -5.41667,
  "coord.lon": 38.01667,
  "name": "Chanika"
},
{
  "coord.lat": -6.63784,
  "coord.lon": 38.353958,
  "name": "Chalinze"
},
{
  "coord.lat": -7.58333,
  "coord.lon": 31.26667,
  "name": "Chala"
},
{
  "coord.lat": -5.24586,
  "coord.lon": 39.76659,
  "name": "Chake Chake"
},
{
  "coord.lat": -1.76667,
  "coord.lon": 33.966671,
  "name": "Butiama"
},
{
  "coord.lat": -3.02361,
  "coord.lon": 31.87472,
  "name": "Buseresere"
},
{
  "coord.lat": -7.63369,
  "coord.lon": 39.058182,
  "name": "Bungu"
},
{
  "coord.lat": -2.05,
  "coord.lon": 33.866669,
  "name": "Bunda"
},
{
  "coord.lat": -1.33167,
  "coord.lon": 31.81222,
  "name": "Bukoba"
},
{
  "coord.lat": -2.87056,
  "coord.lon": 30.528061,
  "name": "Bugarama"
},
{
  "coord.lat": -2.63194,
  "coord.lon": 31.308889,
  "name": "Biharamulo"
},
{
  "coord.lat": -4.36667,
  "coord.lon": 35.083328,
  "name": "Basotu"
},
{
  "coord.lat": -4.23333,
  "coord.lon": 35.416672,
  "name": "Bashanet"
},
{
  "coord.lat": -2.8,
  "coord.lon": 33.98333,
  "name": "Bariadi"
},
{
  "coord.lat": -6.43333,
  "coord.lon": 38.900002,
  "name": "Bagamoyo"
},
{
  "coord.lat": -4.21667,
  "coord.lon": 35.75,
  "name": "Babati"
},
{
  "coord.lat": -3.36667,
  "coord.lon": 36.683331,
  "name": "Arusha"
},
{
  "coord.lat": 39.51075,
  "coord.lon": 54.36713,
  "name": "Balkanabat"
},
{
  "coord.lat": 37.348209,
  "coord.lon": 59.614311,
  "name": "Kaka"
},
{
  "coord.lat": 39.206108,
  "coord.lon": 54.590561,
  "name": "Gumdag"
},
{
  "coord.lat": 39.244629,
  "coord.lon": 55.515362,
  "name": "Gazanjyk"
},
{
  "coord.lat": 38.050671,
  "coord.lon": 58.205589,
  "name": "Buzmeyin"
},
{
  "coord.lat": 38.436241,
  "coord.lon": 57.43158,
  "name": "Baherden"
},
{
  "coord.lat": 37.950001,
  "coord.lon": 58.383331,
  "name": "Ashgabat"
},
{
  "coord.lat": 37.887569,
  "coord.lon": 58.515999,
  "name": "Annau"
},
{
  "coord.lat": 33.967361,
  "coord.lon": 36.65741,
  "name": "Yabrud"
},
{
  "coord.lat": 35.26548,
  "coord.lon": 36.710621,
  "name": "Tayyibat al Imam"
},
{
  "coord.lat": 34.889019,
  "coord.lon": 35.886589,
  "name": "Tartouss"
},
{
  "coord.lat": 36.473621,
  "coord.lon": 37.096722,
  "name": "Tall Rifat"
},
{
  "coord.lat": 34.668419,
  "coord.lon": 36.259949,
  "name": "Tall Kalakh"
},
{
  "coord.lat": 34.84063,
  "coord.lon": 36.73093,
  "name": "Tallbisah"
},
{
  "coord.lat": 32.735641,
  "coord.lon": 36.06694,
  "name": "Tafas"
},
{
  "coord.lat": 34.560768,
  "coord.lon": 38.280548,
  "name": "Tadmur"
},
{
  "coord.lat": 36.348141,
  "coord.lon": 37.530899,
  "name": "Tadif"
},
{
  "coord.lat": 35.291592,
  "coord.lon": 36.74876,
  "name": "Souran"
},
{
  "coord.lat": 34.854439,
  "coord.lon": 40.60833,
  "name": "Subaykhan"
},
{
  "coord.lat": 32.829441,
  "coord.lon": 36.159328,
  "name": "Shaykh Miskin"
},
{
  "coord.lat": 35.864471,
  "coord.lon": 36.805908,
  "name": "Saraqib"
},
{
  "coord.lat": 36.138088,
  "coord.lon": 36.45322,
  "name": "Salqin"
},
{
  "coord.lat": 35.011269,
  "coord.lon": 37.053242,
  "name": "Salamiyah"
},
{
  "coord.lat": 34.818359,
  "coord.lon": 36.113762,
  "name": "Satita"
},
{
  "coord.lat": 33.43544,
  "coord.lon": 36.081478,
  "name": "Qatana"
},
{
  "coord.lat": 32.992329,
  "coord.lon": 36.060181,
  "name": "Jasim"
},
{
  "coord.lat": 34.152699,
  "coord.lon": 36.74152,
  "name": "Qarah"
},
{
  "coord.lat": 36.377102,
  "coord.lon": 36.992378,
  "name": "Nubl"
},
{
  "coord.lat": 35.0653,
  "coord.lon": 36.340599,
  "name": "Masyaf"
},
{
  "coord.lat": 36.528149,
  "coord.lon": 37.954948,
  "name": "Manbij"
},
{
  "coord.lat": 36.013371,
  "coord.lon": 36.672539,
  "name": "Maarrat Misrin"
},
{
  "coord.lat": 35.440632,
  "coord.lon": 36.649948,
  "name": "Khan Shaykhun"
},
{
  "coord.lat": 35.374489,
  "coord.lon": 36.602982,
  "name": "Kafr Zaytah"
},
{
  "coord.lat": 36.11684,
  "coord.lon": 36.515282,
  "name": "Kafr Takharim"
},
{
  "coord.lat": 35.613762,
  "coord.lon": 36.564491,
  "name": "Kafr Nabl"
},
{
  "coord.lat": 34.894691,
  "coord.lon": 36.495819,
  "name": "Kafr Laha"
},
{
  "coord.lat": 35.814259,
  "coord.lon": 36.320621,
  "name": "Jisr ash Shughur"
},
{
  "coord.lat": 33.8074,
  "coord.lon": 36.74036,
  "name": "Jayrud"
},
{
  "coord.lat": 36.817501,
  "coord.lon": 38.011108,
  "name": "Jarabulus"
},
{
  "coord.lat": 35.36137,
  "coord.lon": 35.925621,
  "name": "Jablah"
},
{
  "coord.lat": 33.53994,
  "coord.lon": 36.367161,
  "name": "Irbin"
},
{
  "coord.lat": 33.017971,
  "coord.lon": 36.128059,
  "name": "Inkhil"
},
{
  "coord.lat": 35.930618,
  "coord.lon": 36.63393,
  "name": "Idlib"
},
{
  "coord.lat": 34.726822,
  "coord.lon": 36.723389,
  "name": "Homs"
},
{
  "coord.lat": 33.55899,
  "coord.lon": 36.364319,
  "name": "Hirista"
},
{
  "coord.lat": 35.13179,
  "coord.lon": 36.757832,
  "name": "Hamah"
},
{
  "coord.lat": 35.259949,
  "coord.lon": 36.605721,
  "name": "Halfaya"
},
{
  "coord.lat": 36.201241,
  "coord.lon": 37.161171,
  "name": "Aleppo"
},
{
  "coord.lat": 33.571751,
  "coord.lon": 36.402699,
  "name": "Douma"
},
{
  "coord.lat": 33.510201,
  "coord.lon": 36.291279,
  "name": "Damascus"
},
{
  "coord.lat": 36.15694,
  "coord.lon": 37.707779,
  "name": "Dayr Hafir"
},
{
  "coord.lat": 35.33588,
  "coord.lon": 40.140839,
  "name": "Dayr az Zawr"
},
{
  "coord.lat": 37.072788,
  "coord.lon": 40.651989,
  "name": "Ad Darbasiyah"
},
{
  "coord.lat": 33.458969,
  "coord.lon": 36.237419,
  "name": "Darayya"
},
{
  "coord.lat": 35.95554,
  "coord.lon": 36.713928,
  "name": "Binnish"
},
{
  "coord.lat": 35.181881,
  "coord.lon": 35.948711,
  "name": "Baniyas"
},
{
  "coord.lat": 33.72488,
  "coord.lon": 36.100498,
  "name": "Az Zabadani"
},
{
  "coord.lat": 36.58662,
  "coord.lon": 37.04628,
  "name": "Izaz"
},
{
  "coord.lat": 33.610329,
  "coord.lon": 36.310699,
  "name": "At Tall"
},
{
  "coord.lat": 35.846882,
  "coord.lon": 38.54427,
  "name": "Thawrah"
},
{
  "coord.lat": 32.708961,
  "coord.lon": 36.569511,
  "name": "As Suwayda"
},
{
  "coord.lat": 33.072269,
  "coord.lon": 36.183819,
  "name": "Sanamayn"
},
{
  "coord.lat": 36.076962,
  "coord.lon": 37.372509,
  "name": "Safirah"
},
{
  "coord.lat": 34.926529,
  "coord.lon": 36.73238,
  "name": "Ar Rastan"
},
{
  "coord.lat": 35.950001,
  "coord.lon": 39.01667,
  "name": "Ar Raqqah"
},
{
  "coord.lat": 34.025471,
  "coord.lon": 36.728371,
  "name": "An Nabk"
},
{
  "coord.lat": 33.73848,
  "coord.lon": 36.600712,
  "name": "Al Qutayfah"
},
{
  "coord.lat": 34.50914,
  "coord.lon": 36.57975,
  "name": "Al Qusayr"
},
{
  "coord.lat": 33.125938,
  "coord.lon": 35.824612,
  "name": "Al Qunaytirah"
},
{
  "coord.lat": 34.229561,
  "coord.lon": 37.240662,
  "name": "Al Qaryatayn"
},
{
  "coord.lat": 35.020889,
  "coord.lon": 40.453461,
  "name": "Mayadin"
},
{
  "coord.lat": 35.514839,
  "coord.lon": 35.77684,
  "name": "Latakia"
},
{
  "coord.lat": 33.357201,
  "coord.lon": 36.242779,
  "name": "Al Kiswah"
},
{
  "coord.lat": 36.502369,
  "coord.lon": 40.747719,
  "name": "Al Hasakah"
},
{
  "coord.lat": 32.749321,
  "coord.lon": 36.30994,
  "name": "Al Harak"
},
{
  "coord.lat": 36.369942,
  "coord.lon": 37.517879,
  "name": "Al Bab"
},
{
  "coord.lat": 36.51598,
  "coord.lon": 36.863049,
  "name": "Afrin"
},
{
  "coord.lat": 36.212521,
  "coord.lon": 36.769779,
  "name": "Ad Dana"
},
{
  "coord.lat": 34.450001,
  "coord.lon": 40.91861,
  "name": "Albu Kamal"
},
{
  "coord.lat": 34.692699,
  "coord.lon": 40.827,
  "name": "Hajin"
},
{
  "coord.lat": 39.207539,
  "coord.lon": 46.405762,
  "name": "Kapan"
},
{
  "coord.lat": 39.512878,
  "coord.lon": 46.338161,
  "name": "Goris"
},
{
  "coord.lat": 39.46405,
  "coord.lon": 45.97047,
  "name": "Hatsavan"
},
{
  "coord.lat": 39.961441,
  "coord.lon": 44.544472,
  "name": "Artashat"
},
{
  "coord.lat": 39.831661,
  "coord.lon": 44.704891,
  "name": "Ararat"
},
{
  "coord.lat": -9.34506,
  "coord.lon": 28.733959,
  "name": "Nchelenge"
},
{
  "coord.lat": -8.84024,
  "coord.lon": 31.36587,
  "name": "Mbala"
},
{
  "coord.lat": -9.7915,
  "coord.lon": 29.07913,
  "name": "Kawambwa"
},
{
  "coord.lat": 0.60751,
  "coord.lon": 34.769661,
  "name": "Webuye"
},
{
  "coord.lat": 1.7471,
  "coord.lon": 40.05732,
  "name": "Wajir"
},
{
  "coord.lat": -3.39452,
  "coord.lon": 38.563042,
  "name": "Voi"
},
{
  "coord.lat": -1.03326,
  "coord.lon": 37.069328,
  "name": "Thika"
},
{
  "coord.lat": -0.17333,
  "coord.lon": 35.863819,
  "name": "Rongai"
},
{
  "coord.lat": -0.42013,
  "coord.lon": 36.94759,
  "name": "Nyeri"
},
{
  "coord.lat": 0.0421,
  "coord.lon": 36.36734,
  "name": "Nyahururu"
},
{
  "coord.lat": -1.07829,
  "coord.lon": 35.860119,
  "name": "Narok"
},
{
  "coord.lat": 0.01667,
  "coord.lon": 37.07283,
  "name": "Nanyuki"
},
{
  "coord.lat": -0.28333,
  "coord.lon": 36.066669,
  "name": "Nakuru"
},
{
  "coord.lat": -0.71667,
  "coord.lon": 36.435909,
  "name": "Naivasha"
},
{
  "coord.lat": -1.28333,
  "coord.lon": 36.816669,
  "name": "Nairobi"
},
{
  "coord.lat": 0.33511,
  "coord.lon": 34.486401,
  "name": "Mumias"
},
{
  "coord.lat": -0.15406,
  "coord.lon": 35.19878,
  "name": "Muhoroni"
},
{
  "coord.lat": 3.5167,
  "coord.lon": 39.058418,
  "name": "Moyale"
},
{
  "coord.lat": -4.05466,
  "coord.lon": 39.663589,
  "name": "Mombasa"
},
{
  "coord.lat": -0.2479,
  "coord.lon": 35.737431,
  "name": "Molo"
},
{
  "coord.lat": -1.06344,
  "coord.lon": 34.473129,
  "name": "Migori"
},
{
  "coord.lat": 0.04626,
  "coord.lon": 37.655869,
  "name": "Meru"
},
{
  "coord.lat": 2.32839,
  "coord.lon": 37.989861,
  "name": "Marsabit"
},
{
  "coord.lat": 1.09679,
  "coord.lon": 36.69799,
  "name": "Maralal"
},
{
  "coord.lat": 3.93663,
  "coord.lon": 41.867008,
  "name": "Mandera"
},
{
  "coord.lat": -3.21748,
  "coord.lon": 40.119099,
  "name": "Malindi"
},
{
  "coord.lat": -1.80409,
  "coord.lon": 37.620338,
  "name": "Makueni"
},
{
  "coord.lat": -1.51667,
  "coord.lon": 37.26667,
  "name": "Machakos"
},
{
  "coord.lat": 0.39361,
  "coord.lon": 34.305279,
  "name": "Lugulu"
},
{
  "coord.lat": 3.11911,
  "coord.lon": 35.597271,
  "name": "Lodwar"
},
{
  "coord.lat": -2.27169,
  "coord.lon": 40.902012,
  "name": "Lamu"
},
{
  "coord.lat": -1.36696,
  "coord.lon": 38.010559,
  "name": "Kitui"
},
{
  "coord.lat": 1.01572,
  "coord.lon": 35.006222,
  "name": "Kitale"
},
{
  "coord.lat": -0.10221,
  "coord.lon": 34.761711,
  "name": "Kisumu"
},
{
  "coord.lat": -0.68174,
  "coord.lon": 34.766659,
  "name": "Kisii"
},
{
  "coord.lat": -3.63045,
  "coord.lon": 39.849918,
  "name": "Kilifi"
},
{
  "coord.lat": -1.16667,
  "coord.lon": 36.833328,
  "name": "Kiambu"
},
{
  "coord.lat": -0.49886,
  "coord.lon": 37.280312,
  "name": "Keruguya"
},
{
  "coord.lat": -0.36774,
  "coord.lon": 35.283138,
  "name": "Kericho"
},
{
  "coord.lat": -0.7,
  "coord.lon": 37.183331,
  "name": "Karuri"
},
{
  "coord.lat": 0.28422,
  "coord.lon": 34.752281,
  "name": "Kakamega"
},
{
  "coord.lat": 0.35462,
  "coord.lon": 37.58218,
  "name": "Isiolo"
},
{
  "coord.lat": -0.52731,
  "coord.lon": 34.457142,
  "name": "Homa Bay"
},
{
  "coord.lat": -0.45355,
  "coord.lon": 39.64011,
  "name": "Garissa"
},
{
  "coord.lat": -0.53112,
  "coord.lon": 37.4506,
  "name": "Embu"
},
{
  "coord.lat": 0.52036,
  "coord.lon": 35.26992,
  "name": "Eldoret"
},
{
  "coord.lat": 0.5635,
  "coord.lon": 34.560551,
  "name": "Bungoma"
},
{
  "coord.lat": -1.45071,
  "coord.lon": 36.982449,
  "name": "Athi River"
},
{
  "coord.lat": -1.9487,
  "coord.lon": 30.4347,
  "name": "Rwamagana"
},
{
  "coord.lat": -1.49984,
  "coord.lon": 29.63497,
  "name": "Musanze"
},
{
  "coord.lat": -2.479,
  "coord.lon": 29.5564,
  "name": "Nzega"
},
{
  "coord.lat": -1.94995,
  "coord.lon": 30.058849,
  "name": "Kigali"
},
{
  "coord.lat": -2.0597,
  "coord.lon": 29.3482,
  "name": "Kibuye"
},
{
  "coord.lat": -2.1597,
  "coord.lon": 30.5427,
  "name": "Kibungo"
},
{
  "coord.lat": -2.07444,
  "coord.lon": 29.75667,
  "name": "Gitarama"
},
{
  "coord.lat": -2.4846,
  "coord.lon": 28.907499,
  "name": "Cyangugu"
},
{
  "coord.lat": -1.70278,
  "coord.lon": 29.25639,
  "name": "Gisenyi"
},
{
  "coord.lat": -1.5763,
  "coord.lon": 30.067499,
  "name": "Byumba"
},
{
  "coord.lat": -2.59667,
  "coord.lon": 29.739441,
  "name": "Butare"
},
{
  "coord.lat": 0.81021,
  "coord.lon": 24.43359,
  "name": "Yangambi"
},
{
  "coord.lat": 3.03716,
  "coord.lon": 29.535509,
  "name": "Watsa"
},
{
  "coord.lat": 2.14838,
  "coord.lon": 27.994659,
  "name": "Wamba"
},
{
  "coord.lat": -3.40667,
  "coord.lon": 29.14583,
  "name": "Uvira"
},
{
  "coord.lat": -6.41667,
  "coord.lon": 20.799999,
  "name": "Tshikapa"
},
{
  "coord.lat": -1.57361,
  "coord.lon": 29.045,
  "name": "Sake"
},
{
  "coord.lat": -7.0,
  "coord.lon": 23.450001,
  "name": "Mwene-Ditu"
},
{
  "coord.lat": -4.85,
  "coord.lon": 21.566669,
  "name": "Mweka"
},
{
  "coord.lat": -6.15,
  "coord.lon": 23.6,
  "name": "Mbuji-Mayi"
},
{
  "coord.lat": -4.96667,
  "coord.lon": 23.450001,
  "name": "Lusambo"
},
{
  "coord.lat": -5.35,
  "coord.lon": 21.41667,
  "name": "Luebo"
},
{
  "coord.lat": -5.36667,
  "coord.lon": 25.75,
  "name": "Lubao"
},
{
  "coord.lat": -3.48333,
  "coord.lon": 23.433331,
  "name": "Lodja"
},
{
  "coord.lat": 2.15,
  "coord.lon": 21.51667,
  "name": "Lisala"
},
{
  "coord.lat": -5.38333,
  "coord.lon": 27.0,
  "name": "Kongolo"
},
{
  "coord.lat": 0.51667,
  "coord.lon": 25.200001,
  "name": "Kisangani"
},
{
  "coord.lat": -2.95,
  "coord.lon": 25.950001,
  "name": "Kindu"
},
{
  "coord.lat": -4.45,
  "coord.lon": 26.66667,
  "name": "Kasongo"
},
{
  "coord.lat": -7.56667,
  "coord.lon": 24.183331,
  "name": "Kaniama"
},
{
  "coord.lat": -5.89583,
  "coord.lon": 22.41778,
  "name": "Kananga"
},
{
  "coord.lat": -3.6,
  "coord.lon": 26.66667,
  "name": "Kampene"
},
{
  "coord.lat": -8.73861,
  "coord.lon": 24.990561,
  "name": "Kamina"
},
{
  "coord.lat": -5.94749,
  "coord.lon": 29.19471,
  "name": "Kalemie"
},
{
  "coord.lat": -6.13333,
  "coord.lon": 24.48333,
  "name": "Kabinda"
},
{
  "coord.lat": -2.46833,
  "coord.lon": 28.824169,
  "name": "Kabare"
},
{
  "coord.lat": -6.05,
  "coord.lon": 26.91667,
  "name": "Kabalo"
},
{
  "coord.lat": 2.77391,
  "coord.lon": 27.61603,
  "name": "Isiro"
},
{
  "coord.lat": -4.31667,
  "coord.lon": 20.58333,
  "name": "Ilebo"
},
{
  "coord.lat": -1.67917,
  "coord.lon": 29.22278,
  "name": "Goma"
},
{
  "coord.lat": 4.28333,
  "coord.lon": 21.01667,
  "name": "Gbadolite"
},
{
  "coord.lat": -6.75,
  "coord.lon": 23.950001,
  "name": "Gandajika"
},
{
  "coord.lat": -5.51,
  "coord.lon": 22.26667,
  "name": "Demba"
},
{
  "coord.lat": 0.15,
  "coord.lon": 29.283331,
  "name": "Butembo"
},
{
  "coord.lat": 2.78582,
  "coord.lon": 24.72998,
  "name": "Buta"
},
{
  "coord.lat": 3.33333,
  "coord.lon": 20.883329,
  "name": "Businga"
},
{
  "coord.lat": 1.56667,
  "coord.lon": 30.25,
  "name": "Bunia"
},
{
  "coord.lat": 2.18333,
  "coord.lon": 22.466669,
  "name": "Bumba"
},
{
  "coord.lat": -2.50833,
  "coord.lon": 28.86083,
  "name": "Bukavu"
},
{
  "coord.lat": -9.2,
  "coord.lon": 25.85,
  "name": "Bukama"
},
{
  "coord.lat": 3.81461,
  "coord.lon": 23.686649,
  "name": "Bondo"
},
{
  "coord.lat": -0.21667,
  "coord.lon": 20.866671,
  "name": "Boende"
},
{
  "coord.lat": 0.5,
  "coord.lon": 29.466669,
  "name": "Beni"
},
{
  "coord.lat": 1.23909,
  "coord.lon": 23.61598,
  "name": "Basoko"
},
{
  "coord.lat": 2.73877,
  "coord.lon": 23.78326,
  "name": "Aketi"
},
{
  "coord.lat": 11.78528,
  "coord.lon": 42.884441,
  "name": "Tadjoura"
},
{
  "coord.lat": 11.96306,
  "coord.lon": 43.290562,
  "name": "Obock"
},
{
  "coord.lat": 11.58767,
  "coord.lon": 43.14468,
  "name": "Djibouti"
},
{
  "coord.lat": 11.15583,
  "coord.lon": 42.712502,
  "name": "Ali Sabieh"
},
{
  "coord.lat": 3.46506,
  "coord.lon": 31.246889,
  "name": "Yumbe"
},
{
  "coord.lat": 0.72833,
  "coord.lon": 32.512218,
  "name": "Wobulenzi"
},
{
  "coord.lat": 0.40444,
  "coord.lon": 32.459438,
  "name": "Wakiso"
},
{
  "coord.lat": 0.69299,
  "coord.lon": 34.180851,
  "name": "Tororo"
},
{
  "coord.lat": 1.71464,
  "coord.lon": 33.61113,
  "name": "Soroti"
},
{
  "coord.lat": 1.145,
  "coord.lon": 33.709438,
  "name": "Pallisa"
},
{
  "coord.lat": 2.41669,
  "coord.lon": 30.98551,
  "name": "Paidha"
},
{
  "coord.lat": -0.88333,
  "coord.lon": 29.65,
  "name": "Ntungamo"
},
{
  "coord.lat": -0.87944,
  "coord.lon": 30.26417,
  "name": "Ntungamo"
},
{
  "coord.lat": 0.41861,
  "coord.lon": 33.173061,
  "name": "Njeru"
},
{
  "coord.lat": 2.47826,
  "coord.lon": 31.08894,
  "name": "Nebbi"
},
{
  "coord.lat": 0.68944,
  "coord.lon": 32.421391,
  "name": "Namasuba"
},
{
  "coord.lat": 0.35333,
  "coord.lon": 32.75528,
  "name": "Mukono"
},
{
  "coord.lat": 0.56055,
  "coord.lon": 31.389999,
  "name": "Mubende"
},
{
  "coord.lat": 3.66088,
  "coord.lon": 31.724739,
  "name": "Moyo"
},
{
  "coord.lat": 0.4175,
  "coord.lon": 32.022781,
  "name": "Mityana"
},
{
  "coord.lat": -0.608,
  "coord.lon": 30.65,
  "name": "Mbarara"
},
{
  "coord.lat": 1.08209,
  "coord.lon": 34.17503,
  "name": "Mbale"
},
{
  "coord.lat": 1.67444,
  "coord.lon": 31.715,
  "name": "Masindi"
},
{
  "coord.lat": -0.33379,
  "coord.lon": 31.734091,
  "name": "Masaka"
},
{
  "coord.lat": 0.84917,
  "coord.lon": 32.473061,
  "name": "Luwero"
},
{
  "coord.lat": 0.37722,
  "coord.lon": 32.91972,
  "name": "Lugazi"
},
{
  "coord.lat": 2.235,
  "coord.lon": 32.909721,
  "name": "Lira"
},
{
  "coord.lat": 0.63278,
  "coord.lon": 30.621389,
  "name": "Kyenjojo"
},
{
  "coord.lat": 2.98056,
  "coord.lon": 34.13306,
  "name": "Kotido"
},
{
  "coord.lat": 3.27833,
  "coord.lon": 32.886669,
  "name": "Kitgum"
},
{
  "coord.lat": 0.3475,
  "coord.lon": 32.64917,
  "name": "Kireka"
},
{
  "coord.lat": 0.7025,
  "coord.lon": 32.888611,
  "name": "Kayunga"
},
{
  "coord.lat": 0.18333,
  "coord.lon": 30.08333,
  "name": "Kasese"
},
{
  "coord.lat": 0.1866,
  "coord.lon": 30.45393,
  "name": "Kamwenge"
},
{
  "coord.lat": 0.31628,
  "coord.lon": 32.582191,
  "name": "Kampala"
},
{
  "coord.lat": -1.24857,
  "coord.lon": 29.989929,
  "name": "Kabale"
},
{
  "coord.lat": 0.43902,
  "coord.lon": 33.203171,
  "name": "Jinja"
},
{
  "coord.lat": 0.60917,
  "coord.lon": 33.468609,
  "name": "Iganga"
},
{
  "coord.lat": 1.43556,
  "coord.lon": 31.343611,
  "name": "Hoima"
},
{
  "coord.lat": 2.77457,
  "coord.lon": 32.298988,
  "name": "Gulu"
},
{
  "coord.lat": 0.66174,
  "coord.lon": 30.274799,
  "name": "Fort Portal"
},
{
  "coord.lat": 0.06444,
  "coord.lon": 32.446941,
  "name": "Entebbe"
},
{
  "coord.lat": -0.59167,
  "coord.lon": 30.628611,
  "name": "Bwizibwera"
},
{
  "coord.lat": 0.64222,
  "coord.lon": 33.174438,
  "name": "Buwenge"
},
{
  "coord.lat": 0.45444,
  "coord.lon": 34.075829,
  "name": "Busia"
},
{
  "coord.lat": 0.76972,
  "coord.lon": 33.61306,
  "name": "Busembatia"
},
{
  "coord.lat": 0.74139,
  "coord.lon": 30.04167,
  "name": "Bundibugyo"
},
{
  "coord.lat": 0.57139,
  "coord.lon": 33.741669,
  "name": "Bugiri"
},
{
  "coord.lat": 3.02013,
  "coord.lon": 30.911051,
  "name": "Arua"
},
{
  "coord.lat": 3.37786,
  "coord.lon": 31.790899,
  "name": "Adjumani"
},
{
  "coord.lat": -9.93333,
  "coord.lon": 33.933331,
  "name": "Karonga"
},
{
  "coord.lat": 4.31902,
  "coord.lon": 21.17861,
  "name": "Mobaye"
},
{
  "coord.lat": 6.26793,
  "coord.lon": 21.22468,
  "name": "Ippy"
},
{
  "coord.lat": 6.54233,
  "coord.lon": 21.98633,
  "name": "Bria"
},
{
  "coord.lat": 4.74132,
  "coord.lon": 22.81838,
  "name": "Bangassou"
},
{
  "coord.lat": 5.76795,
  "coord.lon": 20.67565,
  "name": "Bambari"
},
{
  "coord.lat": -4.61667,
  "coord.lon": 55.450001,
  "name": "Victoria"
},
{
  "coord.lat": 11.0297,
  "coord.lon": 20.2827,
  "name": "Am Timan"
},
{
  "coord.lat": 13.82916,
  "coord.lon": 20.832399,
  "name": "Abeche"
},
{
  "coord.lat": 31.95126,
  "coord.lon": 35.81979,
  "name": "Wadi as Sir"
},
{
  "coord.lat": 31.88542,
  "coord.lon": 35.854301,
  "name": "Umm as Summaq"
},
{
  "coord.lat": 31.87207,
  "coord.lon": 36.005009,
  "name": "Sahab"
},
{
  "coord.lat": 31.716669,
  "coord.lon": 35.799999,
  "name": "Madaba"
},
{
  "coord.lat": 32.27639,
  "coord.lon": 35.59938,
  "name": "Kurayyimah"
},
{
  "coord.lat": 32.280819,
  "coord.lon": 35.899288,
  "name": "Jarash"
},
{
  "coord.lat": 31.15889,
  "coord.lon": 35.69278,
  "name": "Izra"
},
{
  "coord.lat": 32.555561,
  "coord.lon": 35.849998,
  "name": "Irbid"
},
{
  "coord.lat": 32.07275,
  "coord.lon": 36.087959,
  "name": "Az Zarqa"
},
{
  "coord.lat": 32.507221,
  "coord.lon": 35.857498,
  "name": "Aydun"
},
{
  "coord.lat": 30.837521,
  "coord.lon": 35.60442,
  "name": "At Tafilah"
},
{
  "coord.lat": 32.039169,
  "coord.lon": 35.727219,
  "name": "As Salt"
},
{
  "coord.lat": 32.55917,
  "coord.lon": 36.006939,
  "name": "Ar Ramtha"
},
{
  "coord.lat": 32.306301,
  "coord.lon": 35.756531,
  "name": "Anjarah"
},
{
  "coord.lat": 31.955219,
  "coord.lon": 35.94503,
  "name": "Amman"
},
{
  "coord.lat": 31.9167,
  "coord.lon": 35.950001,
  "name": "Al Quwaysimah"
},
{
  "coord.lat": 32.342892,
  "coord.lon": 36.208038,
  "name": "Al Mafraq"
},
{
  "coord.lat": 31.18248,
  "coord.lon": 35.699989,
  "name": "Qir Moav"
},
{
  "coord.lat": 32.02581,
  "coord.lon": 35.864578,
  "name": "Al Jubayhah"
},
{
  "coord.lat": 29.52667,
  "coord.lon": 35.007778,
  "name": "Aqaba"
},
{
  "coord.lat": 32.333851,
  "coord.lon": 35.75238,
  "name": "Ajlun"
},
{
  "coord.lat": 37.842209,
  "coord.lon": 23.77651,
  "name": "Voula"
},
{
  "coord.lat": 39.366669,
  "coord.lon": 22.945829,
  "name": "Volos"
},
{
  "coord.lat": 37.966671,
  "coord.lon": 23.75,
  "name": "Vyronas"
},
{
  "coord.lat": 37.508888,
  "coord.lon": 22.37944,
  "name": "Tripoli"
},
{
  "coord.lat": 39.555279,
  "coord.lon": 21.7675,
  "name": "Trikala"
},
{
  "coord.lat": 38.325001,
  "coord.lon": 23.31889,
  "name": "Thivai"
},
{
  "coord.lat": 37.07333,
  "coord.lon": 22.42972,
  "name": "Sparti"
},
{
  "coord.lat": 37.964272,
  "coord.lon": 23.49649,
  "name": "Salamis"
},
{
  "coord.lat": 35.364719,
  "coord.lon": 24.47139,
  "name": "Rethymno"
},
{
  "coord.lat": 38.950001,
  "coord.lon": 20.75,
  "name": "Preveza"
},
{
  "coord.lat": 37.675129,
  "coord.lon": 21.441019,
  "name": "Pyrgos"
},
{
  "coord.lat": 37.947449,
  "coord.lon": 23.637079,
  "name": "Piraeus"
},
{
  "coord.lat": 38.04187,
  "coord.lon": 23.68494,
  "name": "Petroupolis"
},
{
  "coord.lat": 38.01667,
  "coord.lon": 23.700001,
  "name": "Peristeri"
},
{
  "coord.lat": 37.967751,
  "coord.lon": 23.5721,
  "name": "Perama"
},
{
  "coord.lat": 38.244438,
  "coord.lon": 21.73444,
  "name": "Patra"
},
{
  "coord.lat": 37.920658,
  "coord.lon": 23.70916,
  "name": "Palaio Faliro"
},
{
  "coord.lat": 37.966671,
  "coord.lon": 23.65,
  "name": "Nikaia"
},
{
  "coord.lat": 37.950001,
  "coord.lon": 23.716669,
  "name": "Nea Smyrni"
},
{
  "coord.lat": 38.033329,
  "coord.lon": 23.700001,
  "name": "Ilion"
},
{
  "coord.lat": 38.033329,
  "coord.lon": 23.75,
  "name": "Nea Ionia"
},
{
  "coord.lat": 38.033329,
  "coord.lon": 23.73333,
  "name": "Nea Filadelfeia"
},
{
  "coord.lat": 38.099998,
  "coord.lon": 23.816669,
  "name": "Nea Erythraia"
},
{
  "coord.lat": 38.39167,
  "coord.lon": 21.827499,
  "name": "Nafpaktos"
},
{
  "coord.lat": 37.950001,
  "coord.lon": 23.66667,
  "name": "Moskhaton"
},
{
  "coord.lat": 39.110001,
  "coord.lon": 26.55472,
  "name": "Mytilini"
},
{
  "coord.lat": 38.049999,
  "coord.lon": 23.83333,
  "name": "Melissia"
},
{
  "coord.lat": 38.0,
  "coord.lon": 23.34556,
  "name": "Megara"
},
{
  "coord.lat": 38.435001,
  "coord.lon": 22.87389,
  "name": "Livadeia"
},
{
  "coord.lat": 39.637218,
  "coord.lon": 22.42028,
  "name": "Larisa"
},
{
  "coord.lat": 38.900002,
  "coord.lon": 22.433331,
  "name": "Lamia"
},
{
  "coord.lat": 36.89333,
  "coord.lon": 27.288891,
  "name": "Kos"
},
{
  "coord.lat": 37.898861,
  "coord.lon": 23.871811,
  "name": "Koropi"
},
{
  "coord.lat": 37.940681,
  "coord.lon": 22.95734,
  "name": "Korinthos"
},
{
  "coord.lat": 38.074379,
  "coord.lon": 23.81106,
  "name": "Kifisia"
},
{
  "coord.lat": 38.0,
  "coord.lon": 23.799999,
  "name": "Cholargos"
},
{
  "coord.lat": 38.367779,
  "coord.lon": 26.13583,
  "name": "Chios"
},
{
  "coord.lat": 35.512218,
  "coord.lon": 24.01556,
  "name": "Chania"
},
{
  "coord.lat": 38.463612,
  "coord.lon": 23.59944,
  "name": "Chalkida"
},
{
  "coord.lat": 38.030579,
  "coord.lon": 23.79793,
  "name": "Khalandrion"
},
{
  "coord.lat": 37.962502,
  "coord.lon": 23.61972,
  "name": "Keratsini"
},
{
  "coord.lat": 39.365559,
  "coord.lon": 21.921671,
  "name": "Karditsa"
},
{
  "coord.lat": 37.950001,
  "coord.lon": 23.700001,
  "name": "Kallithea"
},
{
  "coord.lat": 37.038891,
  "coord.lon": 22.11417,
  "name": "Kalamata"
},
{
  "coord.lat": 37.910332,
  "coord.lon": 23.72361,
  "name": "Alimos"
},
{
  "coord.lat": 37.966671,
  "coord.lon": 23.799999,
  "name": "Kaisariani"
},
{
  "coord.lat": 38.066669,
  "coord.lon": 23.76667,
  "name": "Irakleio"
},
{
  "coord.lat": 35.327869,
  "coord.lon": 25.14341,
  "name": "Irakleion"
},
{
  "coord.lat": 39.6675,
  "coord.lon": 20.85083,
  "name": "Ioannina"
},
{
  "coord.lat": 38.01667,
  "coord.lon": 23.75,
  "name": "Galatsi"
},
{
  "coord.lat": 37.883331,
  "coord.lon": 23.73333,
  "name": "Elliniko"
},
{
  "coord.lat": 38.041351,
  "coord.lon": 23.54295,
  "name": "Elefsina"
},
{
  "coord.lat": 38.01667,
  "coord.lon": 23.83333,
  "name": "Agia Paraskevi"
},
{
  "coord.lat": 37.97945,
  "coord.lon": 23.716221,
  "name": "Athens"
},
{
  "coord.lat": 38.066669,
  "coord.lon": 23.58333,
  "name": "Aspropyrgos"
},
{
  "coord.lat": 39.160561,
  "coord.lon": 20.985279,
  "name": "Arta"
},
{
  "coord.lat": 37.633331,
  "coord.lon": 22.73333,
  "name": "Argos"
},
{
  "coord.lat": 38.083328,
  "coord.lon": 23.700001,
  "name": "Ano Liosia"
},
{
  "coord.lat": 38.049999,
  "coord.lon": 23.799999,
  "name": "Marousi"
},
{
  "coord.lat": 37.799999,
  "coord.lon": 21.35,
  "name": "Amaliada"
},
{
  "coord.lat": 38.083328,
  "coord.lon": 23.73333,
  "name": "Acharnes"
},
{
  "coord.lat": 38.248611,
  "coord.lon": 22.08194,
  "name": "Aigio"
},
{
  "coord.lat": 37.98333,
  "coord.lon": 23.683331,
  "name": "Aigaleo"
},
{
  "coord.lat": 38.621391,
  "coord.lon": 21.40778,
  "name": "Agrinio"
},
{
  "coord.lat": 33.84972,
  "coord.lon": 35.904171,
  "name": "Zahle"
},
{
  "coord.lat": 34.436668,
  "coord.lon": 35.84972,
  "name": "Tripoli"
},
{
  "coord.lat": 33.273331,
  "coord.lon": 35.19389,
  "name": "Tyre"
},
{
  "coord.lat": 33.563061,
  "coord.lon": 35.368889,
  "name": "Sidon"
},
{
  "coord.lat": 33.900002,
  "coord.lon": 35.48333,
  "name": "Ras Bayrut"
},
{
  "coord.lat": 33.980831,
  "coord.lon": 35.617779,
  "name": "Djounie"
},
{
  "coord.lat": 34.121109,
  "coord.lon": 35.64806,
  "name": "Jbail"
},
{
  "coord.lat": 33.407501,
  "coord.lon": 35.48278,
  "name": "Habbouch"
},
{
  "coord.lat": 34.250832,
  "coord.lon": 36.010559,
  "name": "Bcharre"
},
{
  "coord.lat": 33.888939,
  "coord.lon": 35.494419,
  "name": "Beirut"
},
{
  "coord.lat": 34.005829,
  "coord.lon": 36.21806,
  "name": "Baalbek"
},
{
  "coord.lat": 33.378891,
  "coord.lon": 35.483891,
  "name": "Nabatiye et Tahta"
},
{
  "coord.lat": 31.287001,
  "coord.lon": 34.259521,
  "name": "Rafah"
},
{
  "coord.lat": 31.44861,
  "coord.lon": 34.392502,
  "name": "An Nusayrat"
},
{
  "coord.lat": 31.340179,
  "coord.lon": 34.306271,
  "name": "Khan Yunis"
},
{
  "coord.lat": 31.52722,
  "coord.lon": 34.48634,
  "name": "Jabalya"
},
{
  "coord.lat": 31.5,
  "coord.lon": 34.466671,
  "name": "Gaza"
},
{
  "coord.lat": 31.41655,
  "coord.lon": 34.345249,
  "name": "Dayr al Balah"
},
{
  "coord.lat": 31.5464,
  "coord.lon": 34.49514,
  "name": "Bayt Lahya"
},
{
  "coord.lat": 31.535299,
  "coord.lon": 34.535789,
  "name": "Bayt Hanun"
},
{
  "coord.lat": 31.34337,
  "coord.lon": 34.323372,
  "name": "Bani Suhayla"
},
{
  "coord.lat": 31.43944,
  "coord.lon": 34.403061,
  "name": "Al Burayj"
},
{
  "coord.lat": 31.31913,
  "coord.lon": 34.34005,
  "name": "Abasan al Kabirah"
},
{
  "coord.lat": 31.769039,
  "coord.lon": 35.216331,
  "name": "Jerusalem"
},
{
  "coord.lat": 31.450001,
  "coord.lon": 35.083328,
  "name": "Yuta"
},
{
  "coord.lat": 32.310371,
  "coord.lon": 35.028629,
  "name": "Tulkarm"
},
{
  "coord.lat": 32.320911,
  "coord.lon": 35.369888,
  "name": "Tubas"
},
{
  "coord.lat": 31.57855,
  "coord.lon": 35.140171,
  "name": "Sair"
},
{
  "coord.lat": 31.89502,
  "coord.lon": 35.184589,
  "name": "Ramallah"
},
{
  "coord.lat": 32.18924,
  "coord.lon": 34.970341,
  "name": "Qalqilyah"
},
{
  "coord.lat": 32.412552,
  "coord.lon": 35.288231,
  "name": "Qabatiyah"
},
{
  "coord.lat": 32.221111,
  "coord.lon": 35.25444,
  "name": "Nablus"
},
{
  "coord.lat": 32.458839,
  "coord.lon": 35.295101,
  "name": "Janin"
},
{
  "coord.lat": 31.558741,
  "coord.lon": 34.974361,
  "name": "Idhna"
},
{
  "coord.lat": 31.578581,
  "coord.lon": 35.105438,
  "name": "Halhul"
},
{
  "coord.lat": 31.507,
  "coord.lon": 35.02652,
  "name": "Dura"
},
{
  "coord.lat": 31.70619,
  "coord.lon": 35.200321,
  "name": "Bethlehem"
},
{
  "coord.lat": 31.71545,
  "coord.lon": 35.187881,
  "name": "Bayt Jala"
},
{
  "coord.lat": 31.515909,
  "coord.lon": 35.164162,
  "name": "Bani Naim"
},
{
  "coord.lat": 32.21207,
  "coord.lon": 35.28561,
  "name": "Balatah"
},
{
  "coord.lat": 31.40967,
  "coord.lon": 34.973289,
  "name": "Az Zahiriyah"
},
{
  "coord.lat": 31.396709,
  "coord.lon": 35.066109,
  "name": "As Samu"
},
{
  "coord.lat": 31.855391,
  "coord.lon": 35.23402,
  "name": "Ar Ram wa Dahiyat al Barid"
},
{
  "coord.lat": 31.866671,
  "coord.lon": 35.450001,
  "name": "Jericho"
},
{
  "coord.lat": 32.4846,
  "coord.lon": 35.2267,
  "name": "Al Yamun"
},
{
  "coord.lat": 31.533331,
  "coord.lon": 35.099998,
  "name": "Hebron"
},
{
  "coord.lat": 31.907209,
  "coord.lon": 35.220612,
  "name": "Al Birah"
},
{
  "coord.lat": 31.770781,
  "coord.lon": 35.269161,
  "name": "Al Ayzariyah"
},
{
  "coord.lat": 29.269171,
  "coord.lon": 47.978062,
  "name": "Janub as Surrah"
},
{
  "coord.lat": 29.3032,
  "coord.lon": 48.048809,
  "name": "Bayan"
},
{
  "coord.lat": 29.333891,
  "coord.lon": 48.076111,
  "name": "As Salimiyah"
},
{
  "coord.lat": 29.14583,
  "coord.lon": 48.094719,
  "name": "Ar Riqqah"
},
{
  "coord.lat": 29.096109,
  "coord.lon": 48.132778,
  "name": "Al Manqaf"
},
{
  "coord.lat": 29.145,
  "coord.lon": 48.13028,
  "name": "Al Mahbulah"
},
{
  "coord.lat": 29.36972,
  "coord.lon": 47.978329,
  "name": "Kuwait City"
},
{
  "coord.lat": 29.3375,
  "coord.lon": 47.658058,
  "name": "Al Jahra"
},
{
  "coord.lat": 29.0825,
  "coord.lon": 48.13028,
  "name": "Al Fahahil"
},
{
  "coord.lat": 29.173889,
  "coord.lon": 48.121109,
  "name": "Al Fintas"
},
{
  "coord.lat": 29.2775,
  "coord.lon": 47.958611,
  "name": "Al Farwaniyah"
},
{
  "coord.lat": 29.365,
  "coord.lon": 48.001389,
  "name": "Ad Dasmah"
},
{
  "coord.lat": 22.566669,
  "coord.lon": 59.528889,
  "name": "Sur"
},
{
  "coord.lat": 24.3643,
  "coord.lon": 56.746811,
  "name": "Al Sohar"
},
{
  "coord.lat": 23.316669,
  "coord.lon": 58.01667,
  "name": "Sufalat Samail"
},
{
  "coord.lat": 24.74333,
  "coord.lon": 56.465832,
  "name": "Shinas"
},
{
  "coord.lat": 17.015051,
  "coord.lon": 54.092369,
  "name": "Salalah"
},
{
  "coord.lat": 24.17222,
  "coord.lon": 56.888611,
  "name": "Saham"
},
{
  "coord.lat": 22.933331,
  "coord.lon": 57.533329,
  "name": "Nizwa"
},
{
  "coord.lat": 23.613871,
  "coord.lon": 58.592201,
  "name": "Muscat"
},
{
  "coord.lat": 26.17993,
  "coord.lon": 56.247742,
  "name": "Khasab"
},
{
  "coord.lat": 22.933331,
  "coord.lon": 57.76667,
  "name": "Izki"
},
{
  "coord.lat": 23.225731,
  "coord.lon": 56.51572,
  "name": "Ibri"
},
{
  "coord.lat": 22.690571,
  "coord.lon": 58.533371,
  "name": "Ibra"
},
{
  "coord.lat": 23.40786,
  "coord.lon": 58.1283,
  "name": "Bidbid"
},
{
  "coord.lat": 23.55563,
  "coord.lon": 58.398899,
  "name": "Bawshar"
},
{
  "coord.lat": 23.70739,
  "coord.lon": 57.88908,
  "name": "Barka"
},
{
  "coord.lat": 22.973391,
  "coord.lon": 57.29958,
  "name": "Bahla"
},
{
  "coord.lat": 22.450001,
  "coord.lon": 58.799999,
  "name": "Badiyah"
},
{
  "coord.lat": 23.84944,
  "coord.lon": 57.43861,
  "name": "As Suwayq"
},
{
  "coord.lat": 23.670271,
  "coord.lon": 58.18911,
  "name": "As Sib al Jadidah"
},
{
  "coord.lat": 23.390829,
  "coord.lon": 57.424438,
  "name": "Ar Rustaq"
},
{
  "coord.lat": 24.53611,
  "coord.lon": 56.565559,
  "name": "Al Liwa"
},
{
  "coord.lat": 23.98864,
  "coord.lon": 57.098381,
  "name": "Al Khaburah"
},
{
  "coord.lat": 24.250879,
  "coord.lon": 55.793121,
  "name": "Al Buraymi"
},
{
  "coord.lat": 22.375601,
  "coord.lon": 57.523338,
  "name": "Adam"
},
{
  "coord.lat": 25.416941,
  "coord.lon": 51.403889,
  "name": "Umm Salal Muhammad"
},
{
  "coord.lat": 25.291941,
  "coord.lon": 51.424438,
  "name": "Ar Rayyan"
},
{
  "coord.lat": 25.171511,
  "coord.lon": 51.603371,
  "name": "Al Wakrah"
},
{
  "coord.lat": 25.683889,
  "coord.lon": 51.505829,
  "name": "Al Khawr"
},
{
  "coord.lat": 25.286667,
  "coord.lon": 51.533333,
  "name": "Doha"
},
{
  "coord.lat": 26.15472,
  "coord.lon": 50.62056,
  "name": "Sitrah"
},
{
  "coord.lat": 26.173611,
  "coord.lon": 50.547779,
  "name": "Madinat Isa"
},
{
  "coord.lat": 26.218611,
  "coord.lon": 50.547779,
  "name": "Jidd Hafs"
},
{
  "coord.lat": 26.11528,
  "coord.lon": 50.506939,
  "name": "Madinat Hamad"
},
{
  "coord.lat": 26.068609,
  "coord.lon": 50.503891,
  "name": "Dar Kulayb"
},
{
  "coord.lat": 26.257219,
  "coord.lon": 50.611938,
  "name": "Al Muharraq"
},
{
  "coord.lat": 26.215361,
  "coord.lon": 50.583199,
  "name": "Manama"
},
{
  "coord.lat": 25.56473,
  "coord.lon": 55.555168,
  "name": "Umm al Qaywayn"
},
{
  "coord.lat": 25.78953,
  "coord.lon": 55.943199,
  "name": "Ras al Khaymah"
},
{
  "coord.lat": 25.33132,
  "coord.lon": 56.341991,
  "name": "Khawr Fakkan"
},
{
  "coord.lat": 25.258169,
  "coord.lon": 55.304722,
  "name": "Dubai"
},
{
  "coord.lat": 25.619551,
  "coord.lon": 56.272911,
  "name": "Diba"
},
{
  "coord.lat": 25.357309,
  "coord.lon": 55.403301,
  "name": "Sharjah"
},
{
  "coord.lat": 24.110279,
  "coord.lon": 52.73056,
  "name": "Ar Ruways"
},
{
  "coord.lat": 25.116409,
  "coord.lon": 56.341412,
  "name": "Al Fujayrah"
},
{
  "coord.lat": 24.191669,
  "coord.lon": 55.760559,
  "name": "Al Ayn"
},
{
  "coord.lat": 25.41111,
  "coord.lon": 55.43504,
  "name": "Ajman"
},
{
  "coord.lat": 25.28812,
  "coord.lon": 55.881569,
  "name": "Adh Dhayd"
},
{
  "coord.lat": 24.466669,
  "coord.lon": 54.366669,
  "name": "Abu Dhabi"
},
{
  "coord.lat": 32.965641,
  "coord.lon": 35.500488,
  "name": "Zefat"
},
{
  "coord.lat": 31.87639,
  "coord.lon": 34.740002,
  "name": "Yavne"
},
{
  "coord.lat": 32.05043,
  "coord.lon": 34.752239,
  "name": "Yafo"
},
{
  "coord.lat": 32.51725,
  "coord.lon": 35.153488,
  "name": "Umm el Fahm"
},
{
  "coord.lat": 32.761669,
  "coord.lon": 34.971939,
  "name": "Tirat Karmel"
},
{
  "coord.lat": 32.792198,
  "coord.lon": 35.531239,
  "name": "Tiberias"
},
{
  "coord.lat": 32.080879,
  "coord.lon": 34.780571,
  "name": "Tel Aviv"
},
{
  "coord.lat": 33.01667,
  "coord.lon": 35.26667,
  "name": "maalot Tarshiha"
},
{
  "coord.lat": 32.84861,
  "coord.lon": 35.20472,
  "name": "Tamra"
},
{
  "coord.lat": 31.525,
  "coord.lon": 34.596931,
  "name": "Sederot"
},
{
  "coord.lat": 32.862221,
  "coord.lon": 35.293331,
  "name": "Sakhnin"
},
{
  "coord.lat": 32.09417,
  "coord.lon": 34.945831,
  "name": "Rosh HaAyin"
},
{
  "coord.lat": 31.96417,
  "coord.lon": 34.80444,
  "name": "Rishon LeZiyyon"
},
{
  "coord.lat": 31.92528,
  "coord.lon": 34.86694,
  "name": "Ramla"
},
{
  "coord.lat": 32.147221,
  "coord.lon": 34.841671,
  "name": "Ramat HaSharon"
},
{
  "coord.lat": 32.080559,
  "coord.lon": 34.814171,
  "name": "Ramat Gan"
},
{
  "coord.lat": 32.85083,
  "coord.lon": 35.070278,
  "name": "Qiryat Yam"
},
{
  "coord.lat": 33.207329,
  "coord.lon": 35.572121,
  "name": "Qiryat Shemona"
},
{
  "coord.lat": 32.836391,
  "coord.lon": 35.075279,
  "name": "Qiryat Motzkin"
},
{
  "coord.lat": 31.60998,
  "coord.lon": 34.764221,
  "name": "Qiryat Gat"
},
{
  "coord.lat": 32.827499,
  "coord.lon": 35.085831,
  "name": "Qiryat Bialik"
},
{
  "coord.lat": 32.80056,
  "coord.lon": 35.106392,
  "name": "Qiryat Ata"
},
{
  "coord.lat": 32.284931,
  "coord.lon": 34.98106,
  "name": "Qalansuwa"
},
{
  "coord.lat": 32.031109,
  "coord.lon": 34.845829,
  "name": "Or Yehuda"
},
{
  "coord.lat": 31.3141,
  "coord.lon": 34.620251,
  "name": "Ofaqim"
},
{
  "coord.lat": 31.42215,
  "coord.lon": 34.588581,
  "name": "Netivot"
},
{
  "coord.lat": 32.33292,
  "coord.lon": 34.859921,
  "name": "Netanya"
},
{
  "coord.lat": 31.929331,
  "coord.lon": 34.798679,
  "name": "Ness Ziona"
},
{
  "coord.lat": 32.764999,
  "coord.lon": 35.049999,
  "name": "Nesher"
},
{
  "coord.lat": 32.703609,
  "coord.lon": 35.295559,
  "name": "Nazareth"
},
{
  "coord.lat": 33.005859,
  "coord.lon": 35.09409,
  "name": "Nahariyya"
},
{
  "coord.lat": 32.671391,
  "coord.lon": 35.240559,
  "name": "Migdal HaEmeq"
},
{
  "coord.lat": 31.721769,
  "coord.lon": 35.106689,
  "name": "Mevo Betar"
},
{
  "coord.lat": 32.889839,
  "coord.lon": 35.407028,
  "name": "Maghar"
},
{
  "coord.lat": 31.951389,
  "coord.lon": 34.895279,
  "name": "Lod"
},
{
  "coord.lat": 32.174999,
  "coord.lon": 34.90694,
  "name": "Kfar Saba"
},
{
  "coord.lat": 32.917221,
  "coord.lon": 35.304169,
  "name": "Karmiel"
},
{
  "coord.lat": 32.11417,
  "coord.lon": 34.973888,
  "name": "Kafr Qasim"
},
{
  "coord.lat": 32.80722,
  "coord.lon": 35.260281,
  "name": "Kafr Manda"
},
{
  "coord.lat": 32.746601,
  "coord.lon": 35.342419,
  "name": "Kafr Kanna"
},
{
  "coord.lat": 32.92556,
  "coord.lon": 35.154999,
  "name": "Judieda Makr"
},
{
  "coord.lat": 32.011391,
  "coord.lon": 34.772221,
  "name": "Holon"
},
{
  "coord.lat": 32.150829,
  "coord.lon": 34.888329,
  "name": "Hod HaSharon"
},
{
  "coord.lat": 32.165829,
  "coord.lon": 34.83667,
  "name": "Herzliyya"
},
{
  "coord.lat": 32.815559,
  "coord.lon": 34.98917,
  "name": "Haifa"
},
{
  "coord.lat": 32.436451,
  "coord.lon": 34.919559,
  "name": "Hadera"
},
{
  "coord.lat": 32.075279,
  "coord.lon": 34.846668,
  "name": "Givat Shemuel"
},
{
  "coord.lat": 32.069721,
  "coord.lon": 34.811668,
  "name": "Givatayim"
},
{
  "coord.lat": 32.2341,
  "coord.lon": 34.95023,
  "name": "Tirah"
},
{
  "coord.lat": 32.266159,
  "coord.lon": 35.00893,
  "name": "Et Taiyiba"
},
{
  "coord.lat": 32.72361,
  "coord.lon": 35.3125,
  "name": "Er Reina"
},
{
  "coord.lat": 29.55805,
  "coord.lon": 34.948212,
  "name": "Eilat"
},
{
  "coord.lat": 31.066669,
  "coord.lon": 35.033329,
  "name": "Dimona"
},
{
  "coord.lat": 32.693611,
  "coord.lon": 35.040829,
  "name": "Daliyat el Karmil"
},
{
  "coord.lat": 31.74959,
  "coord.lon": 34.98877,
  "name": "Bet Shemesh"
},
{
  "coord.lat": 32.5,
  "coord.lon": 35.5,
  "name": "Bet Shean"
},
{
  "coord.lat": 32.090279,
  "coord.lon": 34.839722,
  "name": "Bene Beraq"
},
{
  "coord.lat": 31.25181,
  "coord.lon": 34.791302,
  "name": "Beersheba"
},
{
  "coord.lat": 32.02306,
  "coord.lon": 34.750278,
  "name": "Bat Yam"
},
{
  "coord.lat": 31.66926,
  "coord.lon": 34.571491,
  "name": "Ashqelon"
},
{
  "coord.lat": 31.816669,
  "coord.lon": 34.650002,
  "name": "Ashdod"
},
{
  "coord.lat": 32.923611,
  "coord.lon": 35.072781,
  "name": "Akko"
},
{
  "coord.lat": 32.633228,
  "coord.lon": 35.325218,
  "name": "Afula Illit"
},
{
  "coord.lat": 37.57362,
  "coord.lon": 44.287159,
  "name": "Yuksekova"
},
{
  "coord.lat": 39.82,
  "coord.lon": 34.80444,
  "name": "Yozgat"
},
{
  "coord.lat": 37.3405,
  "coord.lon": 40.825581,
  "name": "Yesilli"
},
{
  "coord.lat": 36.955891,
  "coord.lon": 36.200001,
  "name": "Erzin"
},
{
  "coord.lat": 39.638062,
  "coord.lon": 34.46722,
  "name": "Yerkoy"
},
{
  "coord.lat": 37.375561,
  "coord.lon": 27.26778,
  "name": "Didim"
},
{
  "coord.lat": 37.34026,
  "coord.lon": 28.14279,
  "name": "Yatagan"
},
{
  "coord.lat": 38.295559,
  "coord.lon": 31.17778,
  "name": "Yalvac"
},
{
  "coord.lat": 38.10228,
  "coord.lon": 35.35704,
  "name": "Yahyali"
},
{
  "coord.lat": 37.235279,
  "coord.lon": 39.763062,
  "name": "Viransehir"
},
{
  "coord.lat": 39.17321,
  "coord.lon": 41.455929,
  "name": "Varto"
},
{
  "coord.lat": 38.49239,
  "coord.lon": 43.38311,
  "name": "Van"
},
{
  "coord.lat": 39.71011,
  "coord.lon": 39.702129,
  "name": "Cimin"
},
{
  "coord.lat": 38.673512,
  "coord.lon": 29.4058,
  "name": "Usak"
},
{
  "coord.lat": 38.322922,
  "coord.lon": 26.76403,
  "name": "Urla"
},
{
  "coord.lat": 38.629601,
  "coord.lon": 34.91198,
  "name": "Urgub"
},
{
  "coord.lat": 37.16708,
  "coord.lon": 38.793919,
  "name": "Sanliurfa"
},
{
  "coord.lat": 38.495331,
  "coord.lon": 27.699699,
  "name": "Turgutlu"
},
{
  "coord.lat": 39.108292,
  "coord.lon": 39.547112,
  "name": "Tunceli"
},
{
  "coord.lat": 38.151901,
  "coord.lon": 27.36223,
  "name": "Torbali"
},
{
  "coord.lat": 38.088772,
  "coord.lon": 27.735081,
  "name": "Tire"
},
{
  "coord.lat": 36.501701,
  "coord.lon": 30.527229,
  "name": "Tekirova"
},
{
  "coord.lat": 39.54237,
  "coord.lon": 29.498659,
  "name": "Tavsanli"
},
{
  "coord.lat": 38.506672,
  "coord.lon": 42.28167,
  "name": "Tatvan"
},
{
  "coord.lat": 36.918758,
  "coord.lon": 34.878399,
  "name": "Tarsus"
},
{
  "coord.lat": 38.6908,
  "coord.lon": 35.553799,
  "name": "Talas"
},
{
  "coord.lat": 39.913609,
  "coord.lon": 28.15778,
  "name": "Susurluk"
},
{
  "coord.lat": 36.976139,
  "coord.lon": 38.42495,
  "name": "Suruc"
},
{
  "coord.lat": 39.81012,
  "coord.lon": 35.185959,
  "name": "Sorgun"
},
{
  "coord.lat": 39.185539,
  "coord.lon": 27.609449,
  "name": "Soma"
},
{
  "coord.lat": 38.963379,
  "coord.lon": 41.029308,
  "name": "Solhan"
},
{
  "coord.lat": 37.748199,
  "coord.lon": 27.406139,
  "name": "Soeke"
},
{
  "coord.lat": 37.75502,
  "coord.lon": 39.316669,
  "name": "Siverek"
},
{
  "coord.lat": 39.748329,
  "coord.lon": 37.016109,
  "name": "Sivas"
},
{
  "coord.lat": 37.522781,
  "coord.lon": 42.459438,
  "name": "Sirnak"
},
{
  "coord.lat": 39.0882,
  "coord.lon": 28.977671,
  "name": "Simav"
},
{
  "coord.lat": 38.141941,
  "coord.lon": 41.00806,
  "name": "Silvan"
},
{
  "coord.lat": 37.249722,
  "coord.lon": 42.46944,
  "name": "Silopi"
},
{
  "coord.lat": 36.377781,
  "coord.lon": 33.934441,
  "name": "Silifke"
},
{
  "coord.lat": 37.932621,
  "coord.lon": 41.94025,
  "name": "Siirt"
},
{
  "coord.lat": 37.419258,
  "coord.lon": 31.84527,
  "name": "Seydisehir"
},
{
  "coord.lat": 36.916939,
  "coord.lon": 31.09889,
  "name": "Serik"
},
{
  "coord.lat": 38.939251,
  "coord.lon": 33.538601,
  "name": "Sereflikochisar"
},
{
  "coord.lat": 38.104439,
  "coord.lon": 30.548611,
  "name": "Senirkent"
},
{
  "coord.lat": 37.305141,
  "coord.lon": 44.5742,
  "name": "Semdinli"
},
{
  "coord.lat": 37.95137,
  "coord.lon": 27.36849,
  "name": "Selcuk"
},
{
  "coord.lat": 38.196861,
  "coord.lon": 26.83902,
  "name": "Seferihisar"
},
{
  "coord.lat": 39.35186,
  "coord.lon": 36.40976,
  "name": "Sarkisla"
},
{
  "coord.lat": 38.079441,
  "coord.lon": 31.36639,
  "name": "Sarkikaraagac"
},
{
  "coord.lat": 37.92448,
  "coord.lon": 28.925159,
  "name": "Saraykoy"
},
{
  "coord.lat": 38.464722,
  "coord.lon": 30.269461,
  "name": "Sandikli"
},
{
  "coord.lat": 38.482578,
  "coord.lon": 28.147739,
  "name": "Salihli"
},
{
  "coord.lat": 36.269169,
  "coord.lon": 36.567219,
  "name": "Reyhanli"
},
{
  "coord.lat": 39.57716,
  "coord.lon": 32.141319,
  "name": "Polatli"
},
{
  "coord.lat": 37.486851,
  "coord.lon": 37.29961,
  "name": "Pazarcik"
},
{
  "coord.lat": 39.233608,
  "coord.lon": 42.863441,
  "name": "Patnos"
},
{
  "coord.lat": 39.980309,
  "coord.lon": 41.67635,
  "name": "Pasinler"
},
{
  "coord.lat": 37.074169,
  "coord.lon": 36.24778,
  "name": "Osmaniye"
},
{
  "coord.lat": 38.737282,
  "coord.lon": 34.038658,
  "name": "Ortakoy"
},
{
  "coord.lat": 36.829441,
  "coord.lon": 28.77083,
  "name": "Ortaca"
},
{
  "coord.lat": 38.227798,
  "coord.lon": 27.969549,
  "name": "Hypaepa"
},
{
  "coord.lat": 37.077801,
  "coord.lon": 41.2178,
  "name": "Nusaybin"
},
{
  "coord.lat": 37.00972,
  "coord.lon": 37.79417,
  "name": "Nizip"
},
{
  "coord.lat": 37.965832,
  "coord.lon": 34.679352,
  "name": "Nigde"
},
{
  "coord.lat": 38.625,
  "coord.lon": 34.712219,
  "name": "Nevsehir"
},
{
  "coord.lat": 37.916309,
  "coord.lon": 28.32225,
  "name": "Nazilli"
},
{
  "coord.lat": 36.64389,
  "coord.lon": 33.43885,
  "name": "Mut"
},
{
  "coord.lat": 38.745251,
  "coord.lon": 41.506931,
  "name": "Mus"
},
{
  "coord.lat": 37.218071,
  "coord.lon": 28.366501,
  "name": "Mugla"
},
{
  "coord.lat": 39.06147,
  "coord.lon": 34.382858,
  "name": "Mucur"
},
{
  "coord.lat": 37.316391,
  "coord.lon": 27.78389,
  "name": "Milas"
},
{
  "coord.lat": 37.424702,
  "coord.lon": 41.33934,
  "name": "Midyat"
},
{
  "coord.lat": 36.795261,
  "coord.lon": 34.61792,
  "name": "Mercin"
},
{
  "coord.lat": 38.60754,
  "coord.lon": 27.06938,
  "name": "Menemen"
},
{
  "coord.lat": 36.855,
  "coord.lon": 28.27417,
  "name": "Marmaris"
},
{
  "coord.lat": 37.313091,
  "coord.lon": 40.743568,
  "name": "Mardin"
},
{
  "coord.lat": 38.612019,
  "coord.lon": 27.42646,
  "name": "Manisa"
},
{
  "coord.lat": 36.786671,
  "coord.lon": 31.44306,
  "name": "Manavgat"
},
{
  "coord.lat": 39.142651,
  "coord.lon": 42.540081,
  "name": "Malazgirt"
},
{
  "coord.lat": 38.350182,
  "coord.lon": 38.316669,
  "name": "Malatya"
},
{
  "coord.lat": 38.459171,
  "coord.lon": 40.647499,
  "name": "Lice"
},
{
  "coord.lat": 39.424171,
  "coord.lon": 29.98333,
  "name": "Kutahya"
},
{
  "coord.lat": 37.855621,
  "coord.lon": 27.256599,
  "name": "Kusadasi"
},
{
  "coord.lat": 37.92717,
  "coord.lon": 41.70282,
  "name": "Kurtalan"
},
{
  "coord.lat": 36.325729,
  "coord.lon": 30.30302,
  "name": "Beykonak"
},
{
  "coord.lat": 39.095139,
  "coord.lon": 33.079891,
  "name": "Kulu"
},
{
  "coord.lat": 38.497219,
  "coord.lon": 41.012218,
  "name": "Kulp"
},
{
  "coord.lat": 38.54726,
  "coord.lon": 28.649759,
  "name": "Kula"
},
{
  "coord.lat": 38.193829,
  "coord.lon": 41.488529,
  "name": "Kozluk"
},
{
  "coord.lat": 37.45517,
  "coord.lon": 35.815731,
  "name": "Kozan"
},
{
  "coord.lat": 38.72139,
  "coord.lon": 39.868061,
  "name": "Kovancilar"
},
{
  "coord.lat": 37.06498,
  "coord.lon": 30.19565,
  "name": "Korkuteli"
},
{
  "coord.lat": 37.871349,
  "coord.lon": 32.484638,
  "name": "Konya"
},
{
  "coord.lat": 37.193329,
  "coord.lon": 40.584999,
  "name": "Kiziltepe"
},
{
  "coord.lat": 37.581039,
  "coord.lon": 29.26639,
  "name": "Serinhisar"
},
{
  "coord.lat": 39.145828,
  "coord.lon": 34.163891,
  "name": "Kirsehir"
},
{
  "coord.lat": 39.10638,
  "coord.lon": 27.66925,
  "name": "Kirkagac"
},
{
  "coord.lat": 39.84528,
  "coord.lon": 33.50639,
  "name": "Kirikkale"
},
{
  "coord.lat": 36.49939,
  "coord.lon": 36.357552,
  "name": "Kirikhan"
},
{
  "coord.lat": 36.71611,
  "coord.lon": 37.115002,
  "name": "Kilis"
},
{
  "coord.lat": 39.673061,
  "coord.lon": 33.613609,
  "name": "Keskin"
},
{
  "coord.lat": 36.597778,
  "coord.lon": 30.56056,
  "name": "Kemer"
},
{
  "coord.lat": 38.426208,
  "coord.lon": 27.417311,
  "name": "Kemalpasa"
},
{
  "coord.lat": 38.73222,
  "coord.lon": 35.485279,
  "name": "Kayseri"
},
{
  "coord.lat": 37.715961,
  "coord.lon": 33.55064,
  "name": "Karapinar"
},
{
  "coord.lat": 37.18111,
  "coord.lon": 33.215,
  "name": "Karaman"
},
{
  "coord.lat": 39.71944,
  "coord.lon": 43.051392,
  "name": "Agri"
},
{
  "coord.lat": 38.95583,
  "coord.lon": 40.038609,
  "name": "Karakocan"
},
{
  "coord.lat": 39.34919,
  "coord.lon": 42.112389,
  "name": "Karacoban"
},
{
  "coord.lat": 39.357498,
  "coord.lon": 33.723888,
  "name": "Kaman"
},
{
  "coord.lat": 37.785519,
  "coord.lon": 38.623699,
  "name": "Kahta"
},
{
  "coord.lat": 37.584702,
  "coord.lon": 36.926399,
  "name": "Kahramanmaras"
},
{
  "coord.lat": 37.37389,
  "coord.lon": 36.096111,
  "name": "Kadirli"
},
{
  "coord.lat": 38.239719,
  "coord.lon": 32.211391,
  "name": "Kadinhani"
},
{
  "coord.lat": 38.412731,
  "coord.lon": 27.13838,
  "name": "Izmir"
},
{
  "coord.lat": 37.764439,
  "coord.lon": 30.552219,
  "name": "Isparta"
},
{
  "coord.lat": 36.587181,
  "coord.lon": 36.17347,
  "name": "Iskenderun"
},
{
  "coord.lat": 37.852219,
  "coord.lon": 27.72361,
  "name": "Incirliova"
},
{
  "coord.lat": 37.26506,
  "coord.lon": 35.657169,
  "name": "Imamoglu"
},
{
  "coord.lat": 38.279171,
  "coord.lon": 31.913891,
  "name": "Ilgin"
},
{
  "coord.lat": 39.92371,
  "coord.lon": 44.044998,
  "name": "Igdir"
},
{
  "coord.lat": 37.341141,
  "coord.lon": 41.8895,
  "name": "Idil"
},
{
  "coord.lat": 38.225719,
  "coord.lon": 42.427761,
  "name": "Hizan"
},
{
  "coord.lat": 39.3606,
  "coord.lon": 41.702221,
  "name": "Hinis"
},
{
  "coord.lat": 37.586861,
  "coord.lon": 38.955051,
  "name": "Hilvan"
},
{
  "coord.lat": 36.987759,
  "coord.lon": 32.456741,
  "name": "Hadim"
},
{
  "coord.lat": 38.646309,
  "coord.lon": 35.449371,
  "name": "Hacilar"
},
{
  "coord.lat": 38.577389,
  "coord.lon": 42.028111,
  "name": "Guroymak"
},
{
  "coord.lat": 37.783611,
  "coord.lon": 37.636669,
  "name": "Golbasi"
},
{
  "coord.lat": 38.020962,
  "coord.lon": 36.497299,
  "name": "Goksun"
},
{
  "coord.lat": 38.75071,
  "coord.lon": 40.560349,
  "name": "Genc"
},
{
  "coord.lat": 39.183418,
  "coord.lon": 36.071892,
  "name": "Gemerek"
},
{
  "coord.lat": 39.041672,
  "coord.lon": 29.41,
  "name": "Gediz"
},
{
  "coord.lat": 36.269421,
  "coord.lon": 32.317921,
  "name": "Gazipasa"
},
{
  "coord.lat": 37.059441,
  "coord.lon": 37.3825,
  "name": "Gaziantep"
},
{
  "coord.lat": 38.6703,
  "coord.lon": 26.756559,
  "name": "Foca"
},
{
  "coord.lat": 36.62167,
  "coord.lon": 29.11639,
  "name": "Fethiye"
},
{
  "coord.lat": 39.78561,
  "coord.lon": 26.34083,
  "name": "Ezine"
},
{
  "coord.lat": 39.776669,
  "coord.lon": 30.520559,
  "name": "Eskisehir"
},
{
  "coord.lat": 39.908611,
  "coord.lon": 41.276939,
  "name": "Erzurum"
},
{
  "coord.lat": 39.75222,
  "coord.lon": 39.492779,
  "name": "Erzincan"
},
{
  "coord.lat": 36.64043,
  "coord.lon": 32.891788,
  "name": "Ermenek"
},
{
  "coord.lat": 38.265331,
  "coord.lon": 39.762119,
  "name": "Ergani"
},
{
  "coord.lat": 37.513329,
  "coord.lon": 34.046719,
  "name": "Eregli"
},
{
  "coord.lat": 36.60498,
  "coord.lon": 34.308361,
  "name": "Erdemli"
},
{
  "coord.lat": 39.02869,
  "coord.lon": 43.358639,
  "name": "Ercis"
},
{
  "coord.lat": 39.019718,
  "coord.lon": 31.15,
  "name": "Emirdag"
},
{
  "coord.lat": 39.342999,
  "coord.lon": 29.258471,
  "name": "Emet"
},
{
  "coord.lat": 36.735828,
  "coord.lon": 29.917749,
  "name": "Elmali"
},
{
  "coord.lat": 39.92083,
  "coord.lon": 33.230831,
  "name": "Elmadag"
},
{
  "coord.lat": 39.803329,
  "coord.lon": 42.673611,
  "name": "Eleskirt"
},
{
  "coord.lat": 38.20591,
  "coord.lon": 37.198299,
  "name": "Elbistan"
},
{
  "coord.lat": 38.674309,
  "coord.lon": 39.223209,
  "name": "Elazig"
},
{
  "coord.lat": 37.874619,
  "coord.lon": 30.85042,
  "name": "Egirdir"
},
{
  "coord.lat": 39.596111,
  "coord.lon": 27.024441,
  "name": "Edremit"
},
{
  "coord.lat": 39.58596,
  "coord.lon": 28.625681,
  "name": "Dursunbey"
},
{
  "coord.lat": 36.86158,
  "coord.lon": 36.228851,
  "name": "Dortyol"
},
{
  "coord.lat": 39.54694,
  "coord.lon": 44.084171,
  "name": "Dogubayazit"
},
{
  "coord.lat": 37.915829,
  "coord.lon": 40.218891,
  "name": "Diyarbakir"
},
{
  "coord.lat": 39.540562,
  "coord.lon": 43.671349,
  "name": "Diyadin"
},
{
  "coord.lat": 38.064999,
  "coord.lon": 30.165569,
  "name": "Dinar"
},
{
  "coord.lat": 38.39056,
  "coord.lon": 35.492222,
  "name": "Develi"
},
{
  "coord.lat": 37.77417,
  "coord.lon": 29.0875,
  "name": "Denizli"
},
{
  "coord.lat": 39.04607,
  "coord.lon": 28.65889,
  "name": "Demirci"
},
{
  "coord.lat": 37.545448,
  "coord.lon": 41.719662,
  "name": "Dargecit"
},
{
  "coord.lat": 38.54583,
  "coord.lon": 37.505829,
  "name": "Darende"
},
{
  "coord.lat": 37.5732,
  "coord.lon": 32.77446,
  "name": "Cumra"
},
{
  "coord.lat": 38.24963,
  "coord.lon": 27.134291,
  "name": "Cumaovasi"
},
{
  "coord.lat": 37.57444,
  "coord.lon": 43.740829,
  "name": "Hakkari"
},
{
  "coord.lat": 37.327221,
  "coord.lon": 42.190281,
  "name": "Cizre"
},
{
  "coord.lat": 37.611671,
  "coord.lon": 28.06139,
  "name": "Cine"
},
{
  "coord.lat": 36.847221,
  "coord.lon": 40.049999,
  "name": "Ceylanpinar"
},
{
  "coord.lat": 37.024719,
  "coord.lon": 35.817501,
  "name": "Ceyhan"
},
{
  "coord.lat": 38.322781,
  "coord.lon": 26.306391,
  "name": "Cesme"
},
{
  "coord.lat": 38.136131,
  "coord.lon": 39.449291,
  "name": "Cermik"
},
{
  "coord.lat": 38.591671,
  "coord.lon": 31.02861,
  "name": "Cay"
},
{
  "coord.lat": 37.749592,
  "coord.lon": 37.296219,
  "name": "Caglayancerit"
},
{
  "coord.lat": 39.500408,
  "coord.lon": 26.972691,
  "name": "Burhaniye"
},
{
  "coord.lat": 37.72028,
  "coord.lon": 30.290831,
  "name": "Burdur"
},
{
  "coord.lat": 39.092918,
  "coord.lon": 42.270309,
  "name": "Bulanik"
},
{
  "coord.lat": 37.459171,
  "coord.lon": 30.594999,
  "name": "Bucak"
},
{
  "coord.lat": 36.1082,
  "coord.lon": 32.961128,
  "name": "Bozyazi"
},
{
  "coord.lat": 39.90778,
  "coord.lon": 30.036671,
  "name": "Bozuyuk"
},
{
  "coord.lat": 37.362499,
  "coord.lon": 38.526669,
  "name": "Bozova"
},
{
  "coord.lat": 37.89056,
  "coord.lon": 34.558891,
  "name": "Bor"
},
{
  "coord.lat": 38.711109,
  "coord.lon": 31.048611,
  "name": "Bolvadin"
},
{
  "coord.lat": 37.03833,
  "coord.lon": 27.429171,
  "name": "Bodrum"
},
{
  "coord.lat": 37.84861,
  "coord.lon": 40.665829,
  "name": "Bismil"
},
{
  "coord.lat": 37.029442,
  "coord.lon": 37.99028,
  "name": "Birecik"
},
{
  "coord.lat": 38.88472,
  "coord.lon": 40.493889,
  "name": "Bingol"
},
{
  "coord.lat": 39.392502,
  "coord.lon": 28.131109,
  "name": "Bigadic"
},
{
  "coord.lat": 37.677349,
  "coord.lon": 31.724581,
  "name": "Beysehir"
},
{
  "coord.lat": 37.69278,
  "coord.lon": 37.861111,
  "name": "Besni"
},
{
  "coord.lat": 39.120739,
  "coord.lon": 27.180519,
  "name": "Bergama"
},
{
  "coord.lat": 36.489109,
  "coord.lon": 36.223309,
  "name": "Belen"
},
{
  "coord.lat": 36.862782,
  "coord.lon": 31.055559,
  "name": "Belek"
},
{
  "coord.lat": 38.217411,
  "coord.lon": 27.64744,
  "name": "Bayindir"
},
{
  "coord.lat": 37.887379,
  "coord.lon": 41.13221,
  "name": "Batman"
},
{
  "coord.lat": 38.567909,
  "coord.lon": 38.823818,
  "name": "Baskil"
},
{
  "coord.lat": 38.737068,
  "coord.lon": 29.75194,
  "name": "Banaz"
},
{
  "coord.lat": 39.64917,
  "coord.lon": 27.88611,
  "name": "Balikesir"
},
{
  "coord.lat": 37.197239,
  "coord.lon": 36.57658,
  "name": "Bahce"
},
{
  "coord.lat": 39.31905,
  "coord.lon": 26.6954,
  "name": "Ayvalik"
},
{
  "coord.lat": 37.845009,
  "coord.lon": 27.83963,
  "name": "Aydin"
},
{
  "coord.lat": 39.92083,
  "coord.lon": 40.695,
  "name": "Askale"
},
{
  "coord.lat": 36.908119,
  "coord.lon": 30.69556,
  "name": "Antalya"
},
{
  "coord.lat": 36.206551,
  "coord.lon": 36.157219,
  "name": "Antioch"
},
{
  "coord.lat": 39.919868,
  "coord.lon": 32.854271,
  "name": "Ankara"
},
{
  "coord.lat": 36.075081,
  "coord.lon": 32.83691,
  "name": "Anamur"
},
{
  "coord.lat": 38.799751,
  "coord.lon": 26.972031,
  "name": "Aliaga"
},
{
  "coord.lat": 38.35083,
  "coord.lon": 28.517179,
  "name": "Alasehir"
},
{
  "coord.lat": 36.543751,
  "coord.lon": 31.999821,
  "name": "Alanya"
},
{
  "coord.lat": 38.357498,
  "coord.lon": 31.416389,
  "name": "Aksehir"
},
{
  "coord.lat": 38.372551,
  "coord.lon": 34.025372,
  "name": "Aksaray"
},
{
  "coord.lat": 38.918522,
  "coord.lon": 27.840059,
  "name": "Akhisar"
},
{
  "coord.lat": 39.660278,
  "coord.lon": 35.88361,
  "name": "Akdagmadeni"
},
{
  "coord.lat": 36.711109,
  "coord.lon": 38.947498,
  "name": "Akcakale"
},
{
  "coord.lat": 38.751781,
  "coord.lon": 42.48135,
  "name": "Ahlat"
},
{
  "coord.lat": 38.756672,
  "coord.lon": 30.543329,
  "name": "Afyonkarahisar"
},
{
  "coord.lat": 38.247688,
  "coord.lon": 36.91399,
  "name": "Afsin"
},
{
  "coord.lat": 37.764408,
  "coord.lon": 38.276291,
  "name": "Adiyaman"
},
{
  "coord.lat": 38.80389,
  "coord.lon": 42.734219,
  "name": "Adilcevaz"
},
{
  "coord.lat": 37.001671,
  "coord.lon": 35.328892,
  "name": "Adana"
},
{
  "coord.lat": 7.93333,
  "coord.lon": 38.716671,
  "name": "Ziway"
},
{
  "coord.lat": 6.75,
  "coord.lon": 38.416672,
  "name": "Yirga Alem"
},
{
  "coord.lat": 4.88333,
  "coord.lon": 38.083328,
  "name": "Yabelo"
},
{
  "coord.lat": 11.91667,
  "coord.lon": 37.700001,
  "name": "Werota"
},
{
  "coord.lat": 8.45,
  "coord.lon": 39.283329,
  "name": "Wenji"
},
{
  "coord.lat": 7.2,
  "coord.lon": 35.450001,
  "name": "Tippi"
},
{
  "coord.lat": 7.2,
  "coord.lon": 38.599998,
  "name": "Shashemene"
},
{
  "coord.lat": 9.56667,
  "coord.lon": 37.099998,
  "name": "Shambu"
},
{
  "coord.lat": 5.75,
  "coord.lon": 38.916672,
  "name": "Shakiso"
},
{
  "coord.lat": 8.91667,
  "coord.lon": 38.616669,
  "name": "Sebeta"
},
{
  "coord.lat": 12.01667,
  "coord.lon": 39.633331,
  "name": "Robit"
},
{
  "coord.lat": 9.5,
  "coord.lon": 35.5,
  "name": "Nejo"
},
{
  "coord.lat": 8.55,
  "coord.lon": 39.26667,
  "name": "Nazret"
},
{
  "coord.lat": 8.6,
  "coord.lon": 39.116669,
  "name": "Mojo"
},
{
  "coord.lat": 15.60972,
  "coord.lon": 39.450001,
  "name": "Massawa"
},
{
  "coord.lat": 8.3,
  "coord.lon": 35.583328,
  "name": "Metu"
},
{
  "coord.lat": 8.9,
  "coord.lon": 39.916672,
  "name": "Metahara"
},
{
  "coord.lat": 9.8,
  "coord.lon": 35.099998,
  "name": "Mendi"
},
{
  "coord.lat": 13.49667,
  "coord.lon": 39.475281,
  "name": "Mekele"
},
{
  "coord.lat": 12.7875,
  "coord.lon": 39.542221,
  "name": "Maychew"
},
{
  "coord.lat": 12.50583,
  "coord.lon": 39.522781,
  "name": "Korem"
},
{
  "coord.lat": 7.31667,
  "coord.lon": 38.083328,
  "name": "Kolito"
},
{
  "coord.lat": 5.88333,
  "coord.lon": 38.98333,
  "name": "Kibre Mengist"
},
{
  "coord.lat": 15.77778,
  "coord.lon": 38.458061,
  "name": "Keren"
},
{
  "coord.lat": 10.71667,
  "coord.lon": 39.866669,
  "name": "Kemise"
},
{
  "coord.lat": 11.08155,
  "coord.lon": 39.743389,
  "name": "Kombolcha"
},
{
  "coord.lat": 5.65,
  "coord.lon": 36.650002,
  "name": "Jinka"
},
{
  "coord.lat": 7.66667,
  "coord.lon": 36.833328,
  "name": "Jima"
},
{
  "coord.lat": 9.35,
  "coord.lon": 42.799999,
  "name": "Jijiga"
},
{
  "coord.lat": 14.10307,
  "coord.lon": 38.28289,
  "name": "Inda Silase"
},
{
  "coord.lat": 9.30944,
  "coord.lon": 42.125832,
  "name": "Harer"
},
{
  "coord.lat": 8.98333,
  "coord.lon": 37.849998,
  "name": "Hagere Hiywet"
},
{
  "coord.lat": 12.6,
  "coord.lon": 37.466671,
  "name": "Gonder"
},
{
  "coord.lat": 7.01667,
  "coord.lon": 39.98333,
  "name": "Goba"
},
{
  "coord.lat": 8.53333,
  "coord.lon": 37.98333,
  "name": "Giyon"
},
{
  "coord.lat": 7.13333,
  "coord.lon": 40.700001,
  "name": "Ginir"
},
{
  "coord.lat": 9.16667,
  "coord.lon": 35.833328,
  "name": "Gimbi"
},
{
  "coord.lat": 9.06667,
  "coord.lon": 38.5,
  "name": "Genet"
},
{
  "coord.lat": 8.81667,
  "coord.lon": 40.51667,
  "name": "Gelemso"
},
{
  "coord.lat": 9.8,
  "coord.lon": 38.400002,
  "name": "Gebre Guracha"
},
{
  "coord.lat": 8.25,
  "coord.lon": 34.583328,
  "name": "Gambela"
},
{
  "coord.lat": 10.7,
  "coord.lon": 37.26667,
  "name": "Finote Selam"
},
{
  "coord.lat": 9.8,
  "coord.lon": 38.73333,
  "name": "Fiche"
},
{
  "coord.lat": 6.3,
  "coord.lon": 36.883331,
  "name": "Felege Neway"
},
{
  "coord.lat": 11.73611,
  "coord.lon": 41.085281,
  "name": "Dubti"
},
{
  "coord.lat": 6.98333,
  "coord.lon": 39.183331,
  "name": "Dodola"
},
{
  "coord.lat": 9.59306,
  "coord.lon": 41.866112,
  "name": "Dire Dawa"
},
{
  "coord.lat": 6.41667,
  "coord.lon": 38.316669,
  "name": "Dila"
},
{
  "coord.lat": 11.13333,
  "coord.lon": 39.633331,
  "name": "Dese"
},
{
  "coord.lat": 8.53333,
  "coord.lon": 34.799999,
  "name": "Dembi Dolo"
},
{
  "coord.lat": 8.75,
  "coord.lon": 38.98333,
  "name": "Debre Zeyit"
},
{
  "coord.lat": 11.85,
  "coord.lon": 38.01667,
  "name": "Debre Tabor"
},
{
  "coord.lat": 10.35,
  "coord.lon": 37.73333,
  "name": "Debre Markos"
},
{
  "coord.lat": 9.68333,
  "coord.lon": 39.533329,
  "name": "Debre Birhan"
},
{
  "coord.lat": 13.15611,
  "coord.lon": 37.89806,
  "name": "Debark"
},
{
  "coord.lat": 8.11667,
  "coord.lon": 38.366669,
  "name": "Butajira"
},
{
  "coord.lat": 10.7,
  "coord.lon": 37.066669,
  "name": "Bure"
},
{
  "coord.lat": 7.28333,
  "coord.lon": 36.23333,
  "name": "Bonga"
},
{
  "coord.lat": 6.96667,
  "coord.lon": 37.866669,
  "name": "Boditi"
},
{
  "coord.lat": 10.45,
  "coord.lon": 38.200001,
  "name": "Bichena"
},
{
  "coord.lat": 8.9,
  "coord.lon": 40.783329,
  "name": "Bedesa"
},
{
  "coord.lat": 8.456,
  "coord.lon": 36.35302,
  "name": "Bedele"
},
{
  "coord.lat": 11.18333,
  "coord.lon": 40.01667,
  "name": "Bati"
},
{
  "coord.lat": 15.11389,
  "coord.lon": 37.592781,
  "name": "Barentu"
},